분류,자치구,공연/행사명,날짜/시간,장소,기관명,이용대상,이용요금,출연자정보,프로그램소개,기타내용,홈페이지 주소,대표이미지,신청일,시민/기관,시작일,종료일,테마분류,위도(Y좌표),경도(X좌표),유무료,문화포털상세URL
클래식,강북구,[세종문화회관] 삼육대학교 음악학과 피아노 동문장학회 입상자 연주회,2023-06-18~2023-06-18,꿈의숲 콘서트홀,세종문화회관,만 8세 이상,전석 무료,,,,https://www.sejongpac.or.kr:443/portal/performance/performance/view.do?performIdx=35268&menuNo=200004&sdate=2024-05-24&searchWrd=&searchSort=1&searchCnd=1&searchPlaceCdStr=P%2CALL&edate=2024-06-30&searchPackage=&pageIndex=5,https://culture.seoul.go.kr/cmmn/file/getImage.do?atchFileId=a7adb406f3ac4ee980c64f6e41850d7c&thumb=Y,2024-05-24,기관,2023-06-18,2023-06-18,기타,37.62025446,127.0443247,무료,https://culture.seoul.go.kr/culture/culture/cultureEvent/view.do?cultcode=147046&menuNo=200008
전시/미술,노원구,[서울시립 북서울미술관] 서도호와 아이들 : 아트랜드,2023-05-02~2025-12-31,서울시립 북서울미술관 1층 하트탱크,서울시립북서울미술관,누구나,,,,,https://sema.seoul.go.kr/kr/whatson/exhibition/detail?exNo=1192249,https://culture.seoul.go.kr/cmmn/file/getImage.do?atchFileId=55ac590a3f7748f880c1b4809c81e2bd&thumb=Y,2024-04-02,기관,2023-05-02,2025-12-31,기타,37.64066045,127.0668656,무료,https://culture.seoul.go.kr/culture/culture/cultureEvent/view.do?cultcode=145911&menuNo=200009
교육/체험,종로구,[서울역사박물관] 말하는 박물관,2023-03-15~2023-12-13,서울역사박물관,서울역사박물관,5-7세 유아,,,,,https://museum.seoul.go.kr/www/board/NR_boardList.do?bbsCd=1005&categoryVal=&sso=ok,https://culture.seoul.go.kr/cmmn/file/getImage.do?atchFileId=4b52a6059bf14950965f2217281c5043&thumb=Y,2023-11-01,기관,2023-03-15,2023-12-13,,37.57050753,126.9705237,무료,https://culture.seoul.go.kr/culture/culture/cultureEvent/view.do?cultcode=143966&menuNo=200011
전시/미술,종로구,2023 서울우리소리박물관 특별전 [자장자장 도담도담],2023-05-05~2024-04-28,서울우리소리박물관 기획전시실,서울우리소리박물관,전체관람가,,,,,http://gomuseum.seoul.go.kr/sekm/front/display/specialView.do?locale=KO&e_cd=3&e_id=55,https://culture.seoul.go.kr/cmmn/file/getImage.do?atchFileId=3b51b7e6cf76455b8562545e2efba71b&thumb=Y,2023-10-18,기관,2023-05-05,2024-04-28,기타,37.57715793,126.989622,무료,https://culture.seoul.go.kr/culture/culture/cultureEvent/view.do?cultcode=143765&menuNo=200009
교육/체험,종로구,[서울우리소리박물관] 자율학습프로그램 [자연관찰 우리소리],2023-04-04~2023-12-31,서울우리소리박물관 1층 누마루,서울우리소리박물관,어린이,,,,,http://gomuseum.seoul.go.kr/sekm/front/edu/program.do?locale=KO#none,https://culture.seoul.go.kr/cmmn/file/getImage.do?atchFileId=0b6a7fcb1b8b4a879c00fcafe93c3aaa&thumb=Y,2023-10-17,기관,2023-04-04,2023-12-31,어린이/청소년 문화행사,37.57715793,126.989622,무료,https://culture.seoul.go.kr/culture/culture/cultureEvent/view.do?cultcode=143751&menuNo=200011
교육/체험,종로구,[서울시립 미술아카이브] 아카이브 산책-건축편,2023-08-24~2023-11-18,서울시립 미술아카이브 모음동 1층,서울시립미술관,누구나,무료,,,,https://sema.seoul.go.kr/kr/whatson/education/detail?acadmyEeNo=1211817,https://culture.seoul.go.kr/cmmn/file/getImage.do?atchFileId=578e8fb4b8914f69ade7d301729845ee&thumb=Y,2023-10-14,기관,2023-08-24,2023-11-18,가족 문화행사,37.60780084,126.9719018,무료,https://culture.seoul.go.kr/culture/culture/cultureEvent/view.do?cultcode=143696&menuNo=200011
영화,중구,청춘극장 9월 상영작 안내,2023-08-30~2023-09-27,청춘극장 문화일보홀,서울시청,프로그램별 상이,"1인 2,000원",,,,https://cafe.naver.com/seoulsilvercinema,https://culture.seoul.go.kr/cmmn/file/getImage.do?atchFileId=3de512bc7027427a887b321320b24616&thumb=Y,2023-09-25,기관,2023-08-30,2023-09-27,어르신 문화행사,37.56712921,126.9686448,유료,https://culture.seoul.go.kr/culture/culture/cultureEvent/view.do?cultcode=143504&menuNo=200013
전시/미술,마포구,"[마포문화재단] Glimpses, 순간의 아름다움",2023-08-24~2023-09-22,마포아트센터 스튜디오 3,마포문화재단,전체 관람가,,,,,https://www.mfac.or.kr/performance/whole_view.jsp?sc_b_category=17&sc_b_code=BOARD_1207683401&pk_seq=2256&page=1,https://culture.seoul.go.kr/cmmn/file/getImage.do?atchFileId=dd69568264394679ac1c18a4f2712a20&thumb=Y,2023-09-21,기관,2023-08-24,2023-09-22,기타,37.54990609,126.9455338,무료,https://culture.seoul.go.kr/culture/culture/cultureEvent/view.do?cultcode=143439&menuNo=200009
전시/미술,중구,Dynamite Looks BTS 그래미 어워드 무대 의상 전시(with 이랜드뮤지엄),2023-08-31~2023-10-03,DDP 디자인랩 1층,동대문디자인플라자,누구나,,,,,https://ddp.or.kr/index.html?menuno=239&siteno=2&bbsno=491&boardno=15&bbstopno=491&act=view&subno=,https://culture.seoul.go.kr/cmmn/file/getImage.do?atchFileId=f73ad722bd4143eba1c0cc9754339139&thumb=Y,2023-09-14,기관,2023-08-31,2023-10-03,,37.56681313,127.0096257,무료,https://culture.seoul.go.kr/culture/culture/cultureEvent/view.do?cultcode=143330&menuNo=200009
전시/미술,중구,[2023 남산골아트랩 이상한옥(理想韓屋) 세 번째 전시 '이상한 방문' 김지훈,2023-08-29~2023-09-24,남산골한옥마을 이승업 가옥,남산골한옥마을,제한없음,,,,,https://www.hanokmaeul.or.kr/ko/h/exh/2023-%eb%82%a8%ec%82%b0%ea%b3%a8%ec%95%84%ed%8a%b8%eb%9e%a9-%ec%9d%b4%ec%83%81%ed%95%9c%ec%98%a5%e7%90%86%e6%83%b3%e9%9f%93%e5%b1%8b-%ec%84%b8-%eb%b2%88%ec%a7%b8-%ec%a0%84%ec%8b%9c-%ec%9d%b4,https://culture.seoul.go.kr/cmmn/file/getImage.do?atchFileId=cfef3c3a219b49a5af3de1a69d52de1d&thumb=Y,2023-09-11,기관,2023-08-29,2023-09-24,,37.5591447,126.9936826,무료,https://culture.seoul.go.kr/culture/culture/cultureEvent/view.do?cultcode=143251&menuNo=200009
교육/체험,송파구,[서울책보고독서의 달 특집] 김기태의 초판본 이야기,2023-08-04~2023-09-22,서울책보고,서울책보고,관심있는 시민 누구나(선착순 70명),,,,,https://seoulbookbogo.kr/front/index.php?g_page=event&m_page=event01&act=View&D_IDX=3923&ViewType=List,https://culture.seoul.go.kr/cmmn/file/getImage.do?atchFileId=88b8cda30e3c47bb8d325b56aa72afcf&thumb=Y,2023-09-07,기관,2023-08-04,2023-09-22,,37.5223926,127.102983,무료,https://culture.seoul.go.kr/culture/culture/cultureEvent/view.do?cultcode=143196&menuNo=200011
전시/미술,은평구,[2023 신진미술인 지원 프로그램] 박미라 개인전 《페어링》,2023-08-31~2023-09-24,SeMA 창고 1층 전시실,서울시립미술관,누구나,,,,,https://sema.seoul.go.kr/kr/whatson/exhibition/detail?exNo=1212122,https://culture.seoul.go.kr/cmmn/file/getImage.do?atchFileId=e8b1f2b75e5744f58c479c570e1350eb&thumb=Y,2023-09-05,기관,2023-08-31,2023-09-24,,37.60933472,126.9343404,무료,https://culture.seoul.go.kr/culture/culture/cultureEvent/view.do?cultcode=143161&menuNo=200009
전시/미술,은평구,[2023 신진미술인 지원 프로그램] 윤미류 개인전 《방화광》,2023-08-31~2023-09-24,SeMA 창고 1층  4-5 전시실,서울시립미술관,전체관람가,,,,,https://sema.seoul.go.kr/kr/whatson/exhibition/detail?exNo=1212142,https://culture.seoul.go.kr/cmmn/file/getImage.do?atchFileId=427583702a39422ca4241cd2fa9f01d0&thumb=Y,2023-09-05,기관,2023-08-31,2023-09-24,,37.60933472,126.9343404,무료,https://culture.seoul.go.kr/culture/culture/cultureEvent/view.do?cultcode=143160&menuNo=200009
교육/체험,종로구,[서울역사박물관] 제39기 중학생 인턴제,2023-05-15~2023-11-11,서울역사박물관,서울역사박물관,중학생 대상,,,,,https://museum.seoul.go.kr/www/board/NR_boardList.do?bbsCd=1005&categoryVal=,https://culture.seoul.go.kr/cmmn/file/getImage.do?atchFileId=af1c9c36cd1341ce80d7c0bc1d86ecc6&thumb=Y,2023-09-04,기관,2023-05-15,2023-11-11,,37.57050753,126.9705237,무료,https://culture.seoul.go.kr/culture/culture/cultureEvent/view.do?cultcode=143131&menuNo=200011
전시/미술,강남구,Alone but Together 展,2023-08-31~2023-09-26,슈페리어갤러리,기타,누구나,,,,,https://blog.naver.com/gallery3366,https://culture.seoul.go.kr/cmmn/file/getImage.do?atchFileId=8f880f6afc1d4a01864c2ee0a19dc988&thumb=Y,2023-09-04,시민,2023-08-31,2023-09-26,기타,37.50809527,127.062,무료,https://culture.seoul.go.kr/culture/culture/cultureEvent/view.do?cultcode=143130&menuNo=200009
교육/체험,종로구,[서울역사박물관] 청소년 박물관 톡(Talk),2023-05-15~2023-12-08,서울역사박물관 2학습실,서울역사박물관,청소년(중·고등학교 학급 단체),,,,,https://museum.seoul.go.kr/www/board/NR_boardList.do?bbsCd=1005&categoryVal=,https://culture.seoul.go.kr/cmmn/file/getImage.do?atchFileId=3864d800b81049a4aee22db479d9d2b5&thumb=Y,2023-09-04,기관,2023-05-15,2023-12-08,,37.57050753,126.9705237,무료,https://culture.seoul.go.kr/culture/culture/cultureEvent/view.do?cultcode=143129&menuNo=200011
전시/미술,강남구,농담: 내게서 번져 당신에게 건네는,2023-08-31~2023-09-04,서울시 강남구 신사동 640-11 캔버스N 갤러리 B/D,기타,누구나,무료,,,,http://www.canvasn.net/exhibition/%EB%86%8D%EB%8B%B4-%EB%82%B4%EA%B2%8C%EC%84%9C-%EB%B2%88%EC%A0%B8-%EB%8B%B9%EC%8B%A0%EC%97%90%EA%B2%8C-%EA%B1%B4%EB%84%A4%EB%8A%94/,https://culture.seoul.go.kr/cmmn/file/getImage.do?atchFileId=cbdbaefa9a174d369269f6d811fb802a&thumb=Y,2023-09-01,시민,2023-08-31,2023-09-04,기타,37.52758204,127.0360356,무료,https://culture.seoul.go.kr/culture/culture/cultureEvent/view.do?cultcode=143117&menuNo=200009
콘서트,용산구,[노들섬] 2023 서울거리공연 구석구석라이브,2023-07-01~2023-11-30,노들섬 1F 노들서가,노들섬,문화예술에 관심 있는 누구나,무료,,,,https://seoulbusking.com,https://culture.seoul.go.kr/cmmn/file/getImage.do?atchFileId=86cb5016f5f248199eed028e124ec5b2&thumb=Y,2023-09-01,기관,2023-07-01,2023-11-30,기타,37.51766383,126.9580365,무료,https://culture.seoul.go.kr/culture/culture/cultureEvent/view.do?cultcode=143105&menuNo=200008
전시/미술,서초구,Blooming Blue - Blue in Yellow 개인전,2023-08-10~2023-09-25,앤스갤러리카페,기타,카페 이용객 누구나,,,,,https://www.instagram.com/p/CwkIjJYLuaM/?utm_source=ig_web_copy_link&igshid=MzRlODBiNWFlZA==,https://culture.seoul.go.kr/cmmn/file/getImage.do?atchFileId=3da8ab636b384ba49092a9107161ebdc&thumb=Y,2023-08-30,시민,2023-08-10,2023-09-25,기타,37.47352526,126.9838121,무료,https://culture.seoul.go.kr/culture/culture/cultureEvent/view.do?cultcode=143074&menuNo=200009
교육/체험,은평구,[구립증산정보도서관] 2023년 2기 은평구 참여형 경제교실,2023-08-28~2023-09-09,증산정보도서관 지하 1층 문화강좌실,은평구청,관내 초등학생 4~6학년생 15명,,,,,https://www.jsplib.or.kr/culture/event.asp?mode=view&lecture_seq=1774&listname=normal,https://culture.seoul.go.kr/cmmn/file/getImage.do?atchFileId=4cbf6410a0e54932adbe63598b2a0f29&thumb=Y,2023-08-29,기관,2023-08-28,2023-09-09,어린이/청소년 문화행사,37.582727,126.9075589,무료,https://culture.seoul.go.kr/culture/culture/cultureEvent/view.do?cultcode=143047&menuNo=200011
전시/미술,중구,The Chemical Reaction 에스더블유앤에이부터 리버럴오피스까지 산업디자이너들의 상호 작용,2023-08-31~2023-11-30,DDP 갤러리문,동대문디자인플라자,누구나,,,,,https://ddp.or.kr/index.html?menuno=239&siteno=2&bbsno=488&boardno=15&bbstopno=488&act=view&subno=,https://culture.seoul.go.kr/cmmn/file/getImage.do?atchFileId=92db0cfba58345b0baea37de6e6fc7ed&thumb=Y,2023-08-29,기관,2023-08-31,2023-11-30,,37.56681313,127.0096257,무료,https://culture.seoul.go.kr/culture/culture/cultureEvent/view.do?cultcode=143039&menuNo=200009
클래식,중구,2023 서울시향 뮤지엄 콘서트 : 배재학당역사박물관,2023-08-30~2023-08-30,배재학당역사박물관,서울시립교향악단,시민 누구나,,,,,https://www.seoulphil.or.kr/perf/view?perfNo=5671&calendarDate=&langCd=ko&menuFlag=MFLG0001,https://culture.seoul.go.kr/cmmn/file/getImage.do?atchFileId=86c6c148431443738c7eb13846f2308e&thumb=Y,2023-08-29,기관,2023-08-30,2023-08-30,,37.56378783,126.9720891,무료,https://culture.seoul.go.kr/culture/culture/cultureEvent/view.do?cultcode=143038&menuNo=200008
교육/체험,은평구,제6회 독서달리기 대회 연계 - 독서의 달 기념 [우리 가족 질문하는힘 기르기 : 하브루타 독서토론],2023-08-31~2023-09-09,"2층 소강당에서 모인 후, 실습은 지하 1층 문화강좌실에서 진행",은평구청,초등 2~4학년 어린이가 포함된 10가족,,,,,https://www.jsplib.or.kr/culture/event.asp?mode=view&lecture_seq=1772&listname=normal,https://culture.seoul.go.kr/cmmn/file/getImage.do?atchFileId=9b2693dc1fc34af0b0ff03aee07b5e8c&thumb=Y,2023-08-28,기관,2023-08-31,2023-09-09,기타,37.582727,126.9075589,무료,https://culture.seoul.go.kr/culture/culture/cultureEvent/view.do?cultcode=143026&menuNo=200011
전시/미술,광진구,[세종뮤지엄갤러리] 강형구 기획 초대전,2023-08-30~2023-09-10,세종대학교 대양 AI센터 B2,광진구청,전체,,,,,https://blog.naver.com/sejonggallery,https://culture.seoul.go.kr/cmmn/file/getImage.do?atchFileId=b9659894fb854ba6ba1ed2c27d475163&thumb=Y,2023-08-28,기관,2023-08-30,2023-09-10,기타,37.55079808,127.0745756,무료,https://culture.seoul.go.kr/culture/culture/cultureEvent/view.do?cultcode=143022&menuNo=200009
기타,마포구,[8월/팟캐스트] 서강도서관 피셜 37회 '순도 100퍼센트의 휴식',2023-08-25~2023-09-24,온라인(팟빵),마포구청,누구나,무료,,,,https://www.podbbang.com/channels/1776366/episodes/24766033?ucode=L-baTPElcB,https://culture.seoul.go.kr/cmmn/file/getImage.do?atchFileId=e0623505bb684444bdbb0608a8b5eae2&thumb=Y,2023-08-26,기관,2023-08-25,2023-09-24,기타,37.5477397,126.9320894,무료,https://culture.seoul.go.kr/culture/culture/cultureEvent/view.do?cultcode=143013&menuNo=200013
교육/체험,마포구,[마포구립서강도서관] 그림책 포카와 민 시리즈로 보는 아동의 성장 (나선희 번역가) ,2023-08-25~2023-09-08,마포구립서강도서관 4층 어린이자료실,마포구청,아동 자녀를 둔 부모,없음,,,,https://mplib.mapo.go.kr/sglib/MENU1199/PGM3028/eventDetail.do?currentPageNo=1&eventSn=7367,https://culture.seoul.go.kr/cmmn/file/getImage.do?atchFileId=5f0087ad0be14a49bca32695f62b7315&thumb=Y,2023-08-25,기관,2023-08-25,2023-09-08,기타,37.5477397,126.9320894,무료,https://culture.seoul.go.kr/culture/culture/cultureEvent/view.do?cultcode=143010&menuNo=200011
교육/체험,노원구,[서울시립과학관] 토요과학강연(4기),2023-08-26~2023-09-23,서울시립과학관 1층 사이언스 홀,서울시립과학관,이공계 진로를 고민하는 학생부터 과학에 관심이 많은 성인까지(누구나),,,,,https://science.seoul.go.kr/program/lecture/info?menuId=46&progMstId=590,https://culture.seoul.go.kr/cmmn/file/getImage.do?atchFileId=adaeb4d204f2451fba69fa6344ad42b0&thumb=Y,2023-08-25,기관,2023-08-26,2023-09-23,어린이/청소년 문화행사,37.64199411,127.0774371,무료,https://culture.seoul.go.kr/culture/culture/cultureEvent/view.do?cultcode=143007&menuNo=200011
교육/체험,종로구,[돈의문박물관마을] 돈의문 마을이야기 투어,2023-01-05~2023-12-31,돈의문박물관마을 곳곳,돈의문박물관마을,시민 누구나,무료,,"골목골목을 누비며 근현대 100년, 기억의 보관소 돈의문박물관마을을 가장 빠르게 알 수 있는 도슨트 투어! (약 40분 진행)",,https://dmvillage.info/docent,https://culture.seoul.go.kr/cmmn/file/getImage.do?atchFileId=55eb01ec63154ec5be9cf5fee5a2e320&thumb=Y,2023-08-24,기관,2023-01-05,2023-12-31,기타,37.56882395,126.9685231,무료,https://culture.seoul.go.kr/culture/culture/cultureEvent/view.do?cultcode=142994&menuNo=200011
전시/미술,성동구,[서울디자인재단] 플라스틱 탐험대 : SUP 습격!,2023-08-09~2023-12-31,서울새활용플라자,서울디자인재단,누구나,무료,,,,http://www.seoulup.or.kr/detail.do?NTT_ID=notice&BBS_ID=7072,https://culture.seoul.go.kr/cmmn/file/getImage.do?atchFileId=a194901c636a421ea3223b8ff37f7287&thumb=Y,2023-08-24,기관,2023-08-09,2023-12-31,어린이/청소년 문화행사,37.55868506,127.0578512,무료,https://culture.seoul.go.kr/culture/culture/cultureEvent/view.do?cultcode=142970&menuNo=200009
교육/체험,중랑구,[중랑문화재단] 옹기테마체험관 옹기테마아카데미,2023-07-20~2023-10-31,옹기테마공원 공예체험장,중랑문화재단,프로그램별 상이,프로그램별 상이,,,,https://jnfac.or.kr/exhibition/program_list.html?gubun=4,https://culture.seoul.go.kr/cmmn/file/getImage.do?atchFileId=9842aa7cc92f40969e0ee03eba9f4a05&thumb=Y,2023-08-24,기관,2023-07-20,2023-10-31,기타,37.61265372,127.0885194,유료,https://culture.seoul.go.kr/culture/culture/cultureEvent/view.do?cultcode=142953&menuNo=200011
교육/체험,성동구,[하수도과학관] 하수와 재이용수: 날아라 물로켓 자동차(1~2학년) ,2023-07-08~2023-09-23,서울하수도과학관 ,서울하수도과학관,초1~2학년,무료,,,,https://yeyak.seoul.go.kr/web/reservation/selectReservView.do?rsv_svc_id=S230609102852551574,https://culture.seoul.go.kr/cmmn/file/getImage.do?atchFileId=c26185cfca904cada42de088958cf5de&thumb=Y,2023-08-24,기관,2023-07-08,2023-09-23,기타,37.5570865,127.0580683,무료,https://culture.seoul.go.kr/culture/culture/cultureEvent/view.do?cultcode=142940&menuNo=200011
교육/체험,성동구,[하수도과학관] 방류수질이 궁금해!,2023-07-09~2023-09-24,서울하수도과학관,서울하수도과학관,초 3~ 6학년,무료,,,,https://yeyak.seoul.go.kr/web/reservation/selectReservView.do?rsv_svc_id=S230609105644484925,https://culture.seoul.go.kr/cmmn/file/getImage.do?atchFileId=3c3e9223a8f04910801173e046a5479f&thumb=Y,2023-08-24,기관,2023-07-09,2023-09-24,기타,37.5570865,127.0580683,무료,https://culture.seoul.go.kr/culture/culture/cultureEvent/view.do?cultcode=142931&menuNo=200011
교육/체험,성동구,[하수도과학관] 전시해설 프로그램(전시실 + 재이용수 처리실) ,2023-01-10~2023-12-31,서울하수도과학관,서울하수도과학관,초등학생 ~ 성인 ,무료,,,,https://yeyak.seoul.go.kr/web/reservation/selectReservView.do?rsv_svc_id=S221219144303341678,https://culture.seoul.go.kr/cmmn/file/getImage.do?atchFileId=37550b962d0449268ed671ec00257277&thumb=Y,2023-08-24,기관,2023-01-10,2023-12-31,어린이/청소년 문화행사,37.5570865,127.0580683,무료,https://culture.seoul.go.kr/culture/culture/cultureEvent/view.do?cultcode=142929&menuNo=200011
교육/체험,성동구,[하수도과학관]경복궁 화장실 속 과학원리 ,2023-07-08~2023-09-23,서울하수도과학관,서울하수도과학관,초등학생 ,무료,,,,https://yeyak.seoul.go.kr/web/reservation/selectReservView.do?rsv_svc_id=S230609104804534911,https://culture.seoul.go.kr/cmmn/file/getImage.do?atchFileId=e75a5f4454134d8c909f8c5eceaa8ddd&thumb=Y,2023-08-24,기관,2023-07-08,2023-09-23,기타,37.5570865,127.0580683,무료,https://culture.seoul.go.kr/culture/culture/cultureEvent/view.do?cultcode=142923&menuNo=200011
전시/미술,강남구,아틀리에 기획전 : 에디강 개인전,2023-08-25~2023-10-21,서울 강남구 압구정로60길 13 4층,기타,누구나,,,,,https://www.lge.co.kr/kr/business/signaturekitchen/exhibit-eddiekang-detail.do,https://culture.seoul.go.kr/cmmn/file/getImage.do?atchFileId=070a45cf3b104c0fb68d1dc53a3cb395&thumb=Y,2023-08-24,시민,2023-08-25,2023-10-21,기타,37.52633827,127.0421284,무료,https://culture.seoul.go.kr/culture/culture/cultureEvent/view.do?cultcode=142909&menuNo=200009
전시/미술,중구,2023 [DDP 가을축제: 디자인&아트],2023-08-31~2023-09-30,동대문디자인플라자(DDP) 전역,동대문디자인플라자,전체관람가,,,,,https://ddp.or.kr/index.html?menuno=239&siteno=2&bbsno=487&boardno=15&bbstopno=487&act=view&subno=,https://culture.seoul.go.kr/cmmn/file/getImage.do?atchFileId=3b0ab709dfd4427e9b5e9eb09d6de6c0&thumb=Y,2023-08-24,기관,2023-08-31,2023-09-30,,37.56681313,127.0096257,무료,https://culture.seoul.go.kr/culture/culture/cultureEvent/view.do?cultcode=142907&menuNo=200009
교육/체험,은평구,2023 엄마아빠 행복 동행 프로젝트 [자녀와 함께 성장하는 행복한 부모 되기],2023-08-30~2023-09-06,지하 문화강좌실,은평구청,부모 및 양육자 20명,,,,,https://www.jsplib.or.kr/culture/event.asp?mode=view&lecture_seq=1771&listname=normal,https://culture.seoul.go.kr/cmmn/file/getImage.do?atchFileId=a0742f78092a4e5a9e80bdde6e8d51eb&thumb=Y,2023-08-24,기관,2023-08-30,2023-09-06,기타,37.582727,126.9075589,무료,https://culture.seoul.go.kr/culture/culture/cultureEvent/view.do?cultcode=142903&menuNo=200011
축제-문화/예술,용산구,2023 서울버스커 페스티벌,2023-08-25~2023-08-27,노들섬 잔디마당 등,서울시청,누구나,,,,,https://nodeul.org/,https://culture.seoul.go.kr/cmmn/file/getImage.do?atchFileId=a4968090dcd24ba3ab9add9abeca5283&thumb=Y,2023-08-24,기관,2023-08-25,2023-08-27,기타,37.51766383,126.9580365,무료,https://culture.seoul.go.kr/culture/culture/cultureEvent/view.do?cultcode=142900&menuNo=200010
전시/미술,강남구,NUMAZ WHOLESALE WEEK,2023-08-22~2023-08-27,슈페리어갤러리,기타,누구나,무료,,,,https://blog.naver.com/gallery3366,https://culture.seoul.go.kr/cmmn/file/getImage.do?atchFileId=5cd88d30b7b2418193f75ad058795ac5&thumb=Y,2023-08-23,시민,2023-08-22,2023-08-27,기타,37.50809527,127.062,무료,https://culture.seoul.go.kr/culture/culture/cultureEvent/view.do?cultcode=142896&menuNo=200009
전시/미술,성동구,After the Wave : 파도가 부서지고 나서,2023-08-30~2023-09-03,알비(ARBY) 갤러리 3층,기타,"바다를 좋아하는 누구나, 관광객, 여행객",무료,ZEN,작가 ZEN의 첫번째 개인전. 2021년부터 3년간 수중필름 카메라로 바라본 바다의 다양한 모습들을 전시합니다. 조금 늦은 여름 휴가를 떠나는 가벼운 마음으로 놀러오세요.,,https://www.instagram.com/p/CwHGCvWvQC4/?igshid=MzRlODBiNWFlZA==,https://culture.seoul.go.kr/cmmn/file/getImage.do?atchFileId=f792ba119d7443a6a8741053eae56bf2&thumb=Y,2023-08-23,시민,2023-08-30,2023-09-03,문화가 있는 날,37.54767653,127.0424904,무료,https://culture.seoul.go.kr/culture/culture/cultureEvent/view.do?cultcode=142887&menuNo=200009
교육/체험,도봉구,[청소년 예술공간 채움] 찰칵! 다 같이 돌자! 도봉 한 바퀴!,2023-08-31~2023-09-21,"평화문화진지, 청소년 예술공간 채움, 둘리뮤지엄, 마을극장 흰고무신, 문화공간 가치",도봉문화재단,도봉구 거주 청소년 6명,,,,,https://www.dbfac.or.kr/front/supportManageReq/supportManageView.do?miv_pageNo=&miv_pageSize=6&total_cnt=&LISTOP=&mode=V&seq=938&searchkey=NAME&search_gb=&gubun=04&search_gb2=All&gubun2=&searchType=title&searchtxt=,https://culture.seoul.go.kr/cmmn/file/getImage.do?atchFileId=3be06af6b05a42b6981cca6b972f07b8&thumb=Y,2023-08-23,기관,2023-08-31,2023-09-21,,37.6897507,127.0449195,무료,https://culture.seoul.go.kr/culture/culture/cultureEvent/view.do?cultcode=142884&menuNo=200011
교육/체험,성북구,[성북구립도서관] 백온유 작가와의 만남 '현장 참석자' 모집&라이브 방송,2023-08-24~2023-08-24,한성대학교 낙산관 대강당(2층),성북문화재단,관심있는 누구나 100명,,,,,https://www.sbculture.or.kr/culture/bbs/BMSR00005/view.do?boardId=22583&menuNo=500144,https://culture.seoul.go.kr/cmmn/file/getImage.do?atchFileId=b225c24ea2ae491f839e19f4597f28fb&thumb=Y,2023-08-23,기관,2023-08-24,2023-08-24,,37.5819996,127.0113127,무료,https://culture.seoul.go.kr/culture/culture/cultureEvent/view.do?cultcode=142879&menuNo=200011
콘서트,종로구,합창드라마 [그들이 있었다],2023-08-30~2023-08-30,마로니에공원 야외공연장,서울시청,누구나,,"배우: 문민경, 송기호, 김태성, 김지현, 김태완, 합창: 서울특별시 여성콘서트합창단, 지휘: 임진순",현실적인 여성의 이야기가 담긴 합창드라마 ‘그들의 노래’가 무료로 대학로 마로니에 야외공연장에서 진행됩니다! 서울특별시 여성콘서트합창단이 성평등과 역사적인 여성의 업적을 기리는 이번 공연에 여러분을 초대합니다.,"공연을 기획한 서울특별시여성콘서트합창단의 서명신 회장은 ”이번 공연에 많은 관객들이 와주시기를 부탁드리며, 공연을 보신 후에는 성별에 따른 역할의 고정관념을 없애고 여성인권의 현주소를 돌아보아 성평등의 의미에 대해 공감하는 계기가 되기를 바란다“고 말했다.   이번 공연은 서울특별시 성평등기금을 후원받아 제작된 작품으로 전석 무료이다.",https://m.blog.naver.com/nanatony7867/223188043360,https://culture.seoul.go.kr/cmmn/file/getImage.do?atchFileId=71dcedc44a7348bca35cd9afe2e25c95&thumb=Y,2023-08-23,기관,2023-08-30,2023-08-30,여성 문화행사,37.58050229,127.0032562,무료,https://culture.seoul.go.kr/culture/culture/cultureEvent/view.do?cultcode=142878&menuNo=200008
교육/체험,은평구,어린이 직업탐색 [네 꿈을 찾아봐!] 8월 - 조향사,2023-08-30~2023-08-30,3층 어린이열람실,은평구청,어린이 이용자 누구나 (24명),,,,,https://www.jsplib.or.kr/culture/event.asp?mode=view&lecture_seq=1770&listname=normal,https://culture.seoul.go.kr/cmmn/file/getImage.do?atchFileId=1d504df14788493c95ee8e524618c2f7&thumb=Y,2023-08-22,기관,2023-08-30,2023-08-30,,37.582727,126.9075589,무료,https://culture.seoul.go.kr/culture/culture/cultureEvent/view.do?cultcode=142875&menuNo=200011
축제-문화/예술,송파구,2023년 [양천 예술인 공연주간 사업] 공연,2023-08-16~2023-09-09,"갈산문화예술센터 1층 전시실, 4층 아이누리홀",양천문화재단,누구나,,,,,https://yfac.kr/main/site/ticket/page1.do?proc_type=view&tidx=215&prepage=%2Fmain%2Fsite%2Fticket%2Fpage1.do,https://culture.seoul.go.kr/cmmn/file/getImage.do?atchFileId=787d59bca56b41d0b598299050c74054&thumb=Y,2023-08-22,기관,2023-08-16,2023-09-09,,37.51076244,126.8702069,무료,https://culture.seoul.go.kr/culture/culture/cultureEvent/view.do?cultcode=142866&menuNo=200010
교육/체험,영등포구,당신이 축구하는 삶: 테이블 풋볼 챔피언십,2023-08-26~2023-08-26,구립영등포아트스퀘어 전시장 내부(영등포타임스퀘어 B2),영등포구청,선착순 32명,,,구립영등포아트스퀘어 8월 문화가 있는 날 연계행사 '테이블 풋볼 챔피언십',,https://ydpartsquare.com/%ED%96%89%EC%82%AC/view/4069753,https://culture.seoul.go.kr/cmmn/file/getImage.do?atchFileId=f34413b0174a4cd5a4c9c4e3ee2cf211&thumb=Y,2023-08-22,기관,2023-08-26,2023-08-26,문화가 있는 날,37.51723326,126.903716,무료,https://culture.seoul.go.kr/culture/culture/cultureEvent/view.do?cultcode=142862&menuNo=200011
전시/미술,종로구,[2023 운현궁 기획전시] 새로봄,2023-08-22~2023-09-03,운현궁 기획전시실,운현궁,관람객 자유관람(전체관람가),,,,,https://www.unhyeongung.or.kr/sub/prpgram/total_list.php?sno=0&group=basic&code=B35&category=&&abmode=view&no=1208&bsort=&bfsort=,https://culture.seoul.go.kr/cmmn/file/getImage.do?atchFileId=bbd3d0800683496cbab5f02c7792f18d&thumb=Y,2023-08-22,기관,2023-08-22,2023-09-03,,37.576125,126.98705,무료,https://culture.seoul.go.kr/culture/culture/cultureEvent/view.do?cultcode=142860&menuNo=200009
축제-문화/예술,중구,"[서울야외밤도서관] 누워서 세계속으로 : 밤의 여행도서관 프랑스, 영국편",2023-08-25~2023-08-27,서울광장,서울도서관,시민 누구나,,,,,https://lib.seoul.go.kr/bbs/content/3_58286,https://culture.seoul.go.kr/cmmn/file/getImage.do?atchFileId=540c9aebd9664925838ba23ba97b2a05&thumb=Y,2023-08-22,기관,2023-08-25,2023-08-27,,37.56533387,126.9776978,무료,https://culture.seoul.go.kr/culture/culture/cultureEvent/view.do?cultcode=142859&menuNo=200010
교육/체험,광진구,[서울상상나라] AI랑 만드는 입체 카드,2023-08-22~2023-09-22,서울상상나라 1층 로비,서울상상나라,5세 이상 어린이,무료,,,,https://www.seoulchildrensmuseum.org/education/educationList.do,https://culture.seoul.go.kr/cmmn/file/getImage.do?atchFileId=26bc2e0d16fc4c20be883e1d0084a473&thumb=Y,2023-08-22,기관,2023-08-22,2023-09-22,어린이/청소년 문화행사,37.55055,127.077569,무료,https://culture.seoul.go.kr/culture/culture/cultureEvent/view.do?cultcode=142858&menuNo=200011
교육/체험,은평구,어린이 북큐레이션 동아리 [책친구 2기],2023-08-28~2023-11-15,3층 어린이열람실,은평구청,초등 3~4학년 10명,,,,,https://www.jsplib.or.kr/culture/event.asp?mode=view&lecture_seq=1769&listname=normal,https://culture.seoul.go.kr/cmmn/file/getImage.do?atchFileId=00c088cc26b54c9a856954223db56ee8&thumb=Y,2023-08-21,기관,2023-08-28,2023-11-15,어린이/청소년 문화행사,37.582727,126.9075589,무료,https://culture.seoul.go.kr/culture/culture/cultureEvent/view.do?cultcode=142856&menuNo=200011
교육/체험,은평구,그림책 속 마음 이끄미 샘들과 함께 하는 감정 북 큐레이션 [내 마음을 읽어요!],2023-08-21~2023-09-14,3층 어린이열람실,은평구청,어린이,,,,,https://www.jsplib.or.kr/culture/event.asp?mode=view&lecture_seq=1768&listname=normal,https://culture.seoul.go.kr/cmmn/file/getImage.do?atchFileId=bbf16a02f6e64cee8cf63e8fbeecc992&thumb=Y,2023-08-21,기관,2023-08-21,2023-09-14,어린이/청소년 문화행사,37.582727,126.9075589,무료,https://culture.seoul.go.kr/culture/culture/cultureEvent/view.do?cultcode=142855&menuNo=200011
전시/미술,종로구,[황학정국궁전시관] 활의 나라 : 다시 태어난 근대 활쏘기의 시작,2023-08-18~2024-12-31,황학정국궁전시관 (서울 종로구 사직로9길 15-32),종로문화재단,전체관람,,,,,https://www.jfac.or.kr/site/main/program/perf_all_list_view?pgIdx=2093,https://culture.seoul.go.kr/cmmn/file/getImage.do?atchFileId=0c7671028a0c4b3e998b448b0d4a09ac&thumb=Y,2023-08-21,기관,2023-08-18,2024-12-31,,37.57791836,126.9639458,무료,https://culture.seoul.go.kr/culture/culture/cultureEvent/view.do?cultcode=142854&menuNo=200009
교육/체험,은평구,AI를 활용한 ! 전자책 만들기,2023-08-22~2023-09-06,4층 문화강좌실,은평구청,한글 프로그램 사용에 어려움이 없는 성인 11명,,,,,https://www.jsplib.or.kr/culture/event.asp?mode=view&lecture_seq=1767&listname=normal,https://culture.seoul.go.kr/cmmn/file/getImage.do?atchFileId=5a3f94e3b4a54394b14a3ade440c1f1e&thumb=Y,2023-08-21,기관,2023-08-22,2023-09-06,기타,37.582727,126.9075589,무료,https://culture.seoul.go.kr/culture/culture/cultureEvent/view.do?cultcode=142853&menuNo=200011
축제-문화/예술,중구,"[20223 한국 양금 축제] 아시아, 양금으로 하나되다",2023-08-29~2023-08-30,눈스퀘어,서울시청,누구나,,,,,https://www.facebook.com/koreayanggeumassociation,https://culture.seoul.go.kr/cmmn/file/getImage.do?atchFileId=76345fb8db194a60aba2ac9be8b78fac&thumb=Y,2023-08-21,시민,2023-08-29,2023-08-30,기타,37.56341165,126.9828877,무료,https://culture.seoul.go.kr/culture/culture/cultureEvent/view.do?cultcode=142850&menuNo=200010
교육/체험,종로구,"2023 서울예술인지원센터 Artists, Life, Insight! [예술가의 인생수업]",2023-08-18~2023-09-04,서울문화재단 대학로 2층(서울시 종로구 동숭길122),서울문화재단,"장르별, 분야별 예술가 및 일반 시민",,,,,https://www.sfac.or.kr/participation/sfac_program.do?eduGubunSel=&pageIndex=&eduMstSeq=32980&eduScheSeq=&mode=VIEW&mstStatus=,https://culture.seoul.go.kr/cmmn/file/getImage.do?atchFileId=83572603708747d8963a4ad5ac0c562e&thumb=Y,2023-08-21,기관,2023-08-18,2023-09-04,,37.571509,127.0337136,무료,https://culture.seoul.go.kr/culture/culture/cultureEvent/view.do?cultcode=142849&menuNo=200011
콘서트,중구,2023 바스락콘서트 9월 공연,2023-08-24~2023-09-02, 서울시청 시민청 지하 2층 바스락홀,시민청, 시민 누구나,,,,,https://www.seoulcitizenshall.kr/?r=sch&m=program2&cate=&ing=active&sort=uid&mod=view&p=1&uid=2692,https://culture.seoul.go.kr/cmmn/file/getImage.do?atchFileId=07f0d01fc1a7499da772c82701f9f3c2&thumb=Y,2023-08-21,기관,2023-08-24,2023-09-02,,37.566635,126.978675,무료,https://culture.seoul.go.kr/culture/culture/cultureEvent/view.do?cultcode=142848&menuNo=200008
교육/체험,노원구,[서울시립과학관] 8월 월간야수: 과학관에 놀러 온 어린왕자(야간개장),2023-08-30~2023-08-30,서울시립과학관,서울시립과학관,누구나,프로그램별 상이,,,,https://science.seoul.go.kr/culture/science/read?menuId=15&progMstId=659,https://culture.seoul.go.kr/cmmn/file/getImage.do?atchFileId=a689e46c362e43de95c5c16242f753fd&thumb=Y,2023-08-21,기관,2023-08-30,2023-08-30,어린이/청소년 문화행사,37.64199411,127.0774371,유료,https://culture.seoul.go.kr/culture/culture/cultureEvent/view.do?cultcode=142846&menuNo=200011
클래식,강북구,소프라노 김은정 독창회,2023-08-25~2023-08-25,꿈의숲 콘서트홀,세종문화회관,만5세이상 관람,전석 초대,,,,https://www.sejongpac.or.kr/portal/performance/performance/view.do?performIdx=34179&menuNo=200004,https://culture.seoul.go.kr/cmmn/file/getImage.do?atchFileId=4359ae349e9b406cb3198762bff8fd4e&thumb=Y,2023-08-21,기관,2023-08-25,2023-08-25,,37.62025446,127.0443247,유료,https://culture.seoul.go.kr/culture/culture/cultureEvent/view.do?cultcode=142844&menuNo=200008
교육/체험,송파구,2023 서울책보고 금요북클럽(9월),2023-08-21~2023-09-08, 서울책보고,서울책보고,누구나 10명(선착순 모집),,,,,https://seoulbookbogo.kr/front/index.php?g_page=event&m_page=event01&act=View&D_IDX=3883&ViewType=List,https://culture.seoul.go.kr/cmmn/file/getImage.do?atchFileId=d413151f38bd4af39e94ff20396be2c2&thumb=Y,2023-08-21,기관,2023-08-21,2023-09-08,,37.5223926,127.102983,무료,https://culture.seoul.go.kr/culture/culture/cultureEvent/view.do?cultcode=142843&menuNo=200011
교육/체험,은평구,2023 특화도서관 육성 지원 사업 [엄마의 마음 치유 수업],2023-08-31~2023-09-06,2층 소강당,은평구청,여성 학부모 20명,,,,,https://www.jsplib.or.kr/culture/event.asp?mode=view&lecture_seq=1766&listname=normal,https://culture.seoul.go.kr/cmmn/file/getImage.do?atchFileId=43dfcaa8667f4cfcbd36ac5dce105a9e&thumb=Y,2023-08-19,기관,2023-08-31,2023-09-06,여성 문화행사,37.582727,126.9075589,무료,https://culture.seoul.go.kr/culture/culture/cultureEvent/view.do?cultcode=142840&menuNo=200011
교육/체험,강서구,[강서문화원] Summer Salon 展 체험활동,2023-08-21~2023-09-02,강서아트리움 1층 갤러리 서,강서문화원,관내 거주하는 어린이 및 가족 관객,"1인 10,000원(재료비, 교육비 포함)",,,,https://kcc2000.modoo.at/?link=2glkcxv4&messageNo=176&mode=view&query=&queryType=0&myList=0&page=1,https://culture.seoul.go.kr/cmmn/file/getImage.do?atchFileId=98c2ffdeae29434d93186e4dcfc037f4&thumb=Y,2023-08-18,기관,2023-08-21,2023-09-02,,37.53754309,126.8376421,유료,https://culture.seoul.go.kr/culture/culture/cultureEvent/view.do?cultcode=142838&menuNo=200011
축제-문화/예술,관악구,관악어린이여름동화페스티벌 [FANTA-G SUMMER],2023-08-26~2023-08-26,관악중앙도서관 아트홀 1층,관악문화재단,누구나,,,,,https://lib.gwanak.go.kr/galib/menu/10048/bbs/20001/bbsPostDetail.do?currentPageNo=1&postIdx=23618&manageCd=,https://culture.seoul.go.kr/cmmn/file/getImage.do?atchFileId=41ea7a78261f4f5093777bcf57129811&thumb=Y,2023-08-18,기관,2023-08-26,2023-08-26,어린이/청소년 문화행사,37.46759765,126.9448709,무료,https://culture.seoul.go.kr/culture/culture/cultureEvent/view.do?cultcode=142836&menuNo=200010
교육/체험,노원구,[과학북토크] 종의 기원담 로봇에 깃든 생명 이야기,2023-08-30~2023-08-30,서울시립과학관 1층 사이언스홀,서울시립과학관,과학에 관심 있는 중학생 이상 누구나 (선착순 70명),,,,,https://science.seoul.go.kr/culture/science/read?menuId=15&progMstId=656,https://culture.seoul.go.kr/cmmn/file/getImage.do?atchFileId=c70a74b73d6541bf8556ed123391423a&thumb=Y,2023-08-18,기관,2023-08-30,2023-08-30,,37.64199411,127.0774371,무료,https://culture.seoul.go.kr/culture/culture/cultureEvent/view.do?cultcode=142835&menuNo=200011
전시/미술,종로구,2023년 8월 시민공유갤러리 전시 [정현순 시민 개인전],2023-08-22~2023-09-01,서울생활문화센터 낙원 낙원역사갤러리,서울생활문화센터-낙원,시민 누구나,,,,,http://www.nakwon-communityart.or.kr/bbs/notice&mode=view&no=150,https://culture.seoul.go.kr/cmmn/file/getImage.do?atchFileId=5c047bc0573e4eaaa5a22262f3de4351&thumb=Y,2023-08-18,기관,2023-08-22,2023-09-01,기타,37.57276352,126.9879025,무료,https://culture.seoul.go.kr/culture/culture/cultureEvent/view.do?cultcode=142834&menuNo=200009
클래식,종로구,김봄날 피아노 독주회,2023-08-31~2023-08-31,세종체임버홀,세종문화회관,만 7세 이상 입장가능,"전석 20,000원",,,,https://www.sejongpac.or.kr/portal/performance/performance/view.do?performIdx=34287&menuNo=200004,https://culture.seoul.go.kr/cmmn/file/getImage.do?atchFileId=3818cebfe43a4fd99ce795ac952cdf41&thumb=Y,2023-08-18,기관,2023-08-31,2023-08-31,,37.5726241,126.9760053,유료,https://culture.seoul.go.kr/culture/culture/cultureEvent/view.do?cultcode=142831&menuNo=200008
전시/미술,용산구,2023 BREEZE ART FAIR(브리즈 아트페어),2023-08-17~2023-08-20,"노들섬 노들 갤러리 1, 2관",노들섬,누구나,"VIP 100,000원, 일반 20,000원",,,,https://www.breezeartfair.com/,https://culture.seoul.go.kr/cmmn/file/getImage.do?atchFileId=099be071069040659c05d3668b196709&thumb=Y,2023-08-17,기관,2023-08-17,2023-08-20,기타,37.51766383,126.9580365,유료,https://culture.seoul.go.kr/culture/culture/cultureEvent/view.do?cultcode=142828&menuNo=200009
전시/미술,은평구,2023 신진 청년작가 공모 지원사업 [사이] 선정 작가 전시,2023-08-21~2023-09-13,아트숨비센터(서울시 은평구 은평로8길 9),은평문화재단,누구나,,,,,https://www.efac.or.kr//sub01/sub01.php?type=view&uid=3609,https://culture.seoul.go.kr/cmmn/file/getImage.do?atchFileId=969573037f97486b8909d42597ac835b&thumb=Y,2023-08-17,기관,2023-08-21,2023-09-13,,37.59939709,126.9207203,무료,https://culture.seoul.go.kr/culture/culture/cultureEvent/view.do?cultcode=142824&menuNo=200009
전시/미술,노원구,"이우영 1972 - 2023 : 매일, 내 일 검정고무신",2023-08-18~2023-09-03,경춘선숲길 갤러리,노원문화재단,시민 누구나,,,,,https://www.nowonarts.kr/html/pe/exhibitiondetail.php?param_url=https%3A%2F%2Fwww.nowonarts.kr%2Fhtml%2Fpe%2Fexhibitioninfo.php%3F%26search_state%3D1%26skin%3D%26search_syear%3D2023%26search_smonth%3D%26search_eyear%3D2023%26search_emonth%3D%26search_order%3D%26startPage%3D0&idx=214,https://culture.seoul.go.kr/cmmn/file/getImage.do?atchFileId=ebe0f2b992ac4b60a9b6d025c36671e7&thumb=Y,2023-08-17,기관,2023-08-18,2023-09-03,기타,37.62449232,127.0931031,무료,https://culture.seoul.go.kr/culture/culture/cultureEvent/view.do?cultcode=142822&menuNo=200009
클래식,광진구,스페인밀레니엄합창단 내한공연 [Hola! 아리랑],2023-08-29~2023-08-29,나루아트센터 대공연장,광진문화재단,미취학 아동 입장 불가,"R석 30,000원/ S석 20,000원",,,,https://www.naruart.or.kr/exhibition/program_view.php?page=1&sch_tab=date&sch_year=2023&sch_month=08&idx=10013,https://culture.seoul.go.kr/cmmn/file/getImage.do?atchFileId=3d84e5d8ff204129ab524efa1dc9d67b&thumb=Y,2023-08-17,기관,2023-08-29,2023-08-29,,37.53782227,127.0704338,유료,https://culture.seoul.go.kr/culture/culture/cultureEvent/view.do?cultcode=142821&menuNo=200008
클래식,중구,예그린 살롱 음악회 8월 공연 [여름날의 추억],2023-08-30~2023-08-30,충무아트센터 예그린스페이스,중구문화재단,만7세이상,,,,,https://www.caci.or.kr/caci/performance/view.do?menuNo=200006&pblprfrId=1495,https://culture.seoul.go.kr/cmmn/file/getImage.do?atchFileId=13f039f32b23489699772fc298c183b5&thumb=Y,2023-08-17,기관,2023-08-30,2023-08-30,문화가 있는 날,37.56594097,127.0147909,무료,https://culture.seoul.go.kr/culture/culture/cultureEvent/view.do?cultcode=142820&menuNo=200008
영화,종로구,[서울역사박물관] 2023년 하반기 배리어프리영화관,2023-08-24~2023-11-23,서울역사박물관 1층 강당(야주개홀),서울역사박물관,일반 시민(제한없음),,,,,https://museum.seoul.go.kr/www/board/NR_boardList.do?bbsCd=1018&sso=ok,https://culture.seoul.go.kr/cmmn/file/getImage.do?atchFileId=fca07e2bb7d2458e9a3a4cfde71ab198&thumb=Y,2023-08-17,기관,2023-08-24,2023-11-23,,37.57050753,126.9705237,무료,https://culture.seoul.go.kr/culture/culture/cultureEvent/view.do?cultcode=142819&menuNo=200013
축제-문화/예술,양천구,2023 서서울호수공원 여름밤의 뮤지컬 갈라쇼,2023-08-19~2023-08-20,서서울호수공원,서울의공원,누구나,,,,,https://parks.seoul.go.kr/story/news/detailView.do?searchTp=all&searchWd=&currentPage=1&bIdx=3162,https://culture.seoul.go.kr/cmmn/file/getImage.do?atchFileId=2271ee2b9a0949fc9549a4082e3bef1f&thumb=Y,2023-08-16,기관,2023-08-19,2023-08-20,기타,37.52732119,126.8304914,무료,https://culture.seoul.go.kr/culture/culture/cultureEvent/view.do?cultcode=142815&menuNo=200010
교육/체험,강북구,"[2023삼각산아트랩 이름을 불러주었을 때] 전시연계프로그램 [우리 집, 청사진 그리기]",2023-08-26~2023-08-26,삼각산시민청 2동 워크숍룸1,삼각산시민청,2인 이상 가족 참여자,,,,,https://sg.seoulcitizenshall.kr/?r=sg&m=bbs&bid=board2&cat=&sort=gid&orderby=asc&recnum=20&where=&keyword=&p=1&uid=3104,https://culture.seoul.go.kr/cmmn/file/getImage.do?atchFileId=ae27bfe8e25248deb1dcc104961f2861&thumb=Y,2023-08-16,기관,2023-08-26,2023-08-26,기타,37.65615469,127.0130917,무료,https://culture.seoul.go.kr/culture/culture/cultureEvent/view.do?cultcode=142814&menuNo=200011
교육/체험,마포구,[2023 디자인스타트업패키지] 4회차 세미나 & 워크샵,2023-08-25~2023-08-25,서울디자인창업센터(현장 워크숍),동대문디자인플라자,디자인창업 예비 및 초기창업자,,,,,https://ddp.or.kr/?menuno=245&bbsno=1669&boardno=22&siteno=2&act=view&cates=11,https://culture.seoul.go.kr/cmmn/file/getImage.do?atchFileId=54086285f8354a129cb091e0b1300b63&thumb=Y,2023-08-16,기관,2023-08-25,2023-08-25,기타,37.55708693,126.9274128,무료,https://culture.seoul.go.kr/culture/culture/cultureEvent/view.do?cultcode=142812&menuNo=200011
축제-문화/예술,중구,[2023년 삼일로창고극장 창고포럼 8월] 한 여름밤의 네트-워킹-홀리데이,2023-08-28~2023-08-28,삼일로창고극장,서울문화재단," 아직 휴가를 가지 못한 예술가, 종사자, 삼일로창고극장에 관심있는 누구나",,,,,https://www.sfac.or.kr/artspace/artspace/samillo_notice.do?cbIdx=981&bcIdx=134588&type=,https://culture.seoul.go.kr/cmmn/file/getImage.do?atchFileId=1c273ac9d5934c9f9eb31606cadbe678&thumb=Y,2023-08-16,기관,2023-08-28,2023-08-28,기타,37.563469,126.9879706,무료,https://culture.seoul.go.kr/culture/culture/cultureEvent/view.do?cultcode=142811&menuNo=200010
축제-문화/예술,양천구,2023 엄마아빠 행복 프로젝트 [8월 가족 힐링 예술놀이],2023-08-26~2023-08-26,서서울예술교육센터 지하 1층 미디어랩 등(양천구 남부순환로 64길 2),서울문화재단,초등생 자녀 포함 가족 (프로그램별 상이),,,,,https://www.sfac.or.kr/artspace/artspace/arteducation_notice.do?cbIdx=983&bcIdx=134584&type=,https://culture.seoul.go.kr/cmmn/file/getImage.do?atchFileId=c495169b367b4f2baa9fee6f10196960&thumb=Y,2023-08-16,기관,2023-08-26,2023-08-26,,37.52821978,126.8321453,무료,https://culture.seoul.go.kr/culture/culture/cultureEvent/view.do?cultcode=142810&menuNo=200010
클래식,강북구,문소정 플루트 독주회,2023-08-23~2023-08-23,꿈의숲 콘서트홀,세종문화회관,5세 이상,"전석 20,000원 / 학생 10,000원",,,,https://www.sejongpac.or.kr/portal/performance/performance/view.do?performIdx=34389&menuNo=200004,https://culture.seoul.go.kr/cmmn/file/getImage.do?atchFileId=25220ea151e24821b3dc3b53d298d0c8&thumb=Y,2023-08-16,기관,2023-08-23,2023-08-23,,37.62025446,127.0443247,유료,https://culture.seoul.go.kr/culture/culture/cultureEvent/view.do?cultcode=142809&menuNo=200008
전시/미술,중구,2023 야외공간큐레이팅 [세종픽셀가든],2023-08-13~2023-10-09,"세종문화회관, 광화문광장",세종문화회관,전연령 관람 가능,무료,,,,https://www.sejongpac.or.kr/portal/performance/performance/view.do?performIdx=34425&menuNo=200004,https://culture.seoul.go.kr/cmmn/file/getImage.do?atchFileId=8816f4ec21bf4e9189fd7768177a7be4&thumb=Y,2023-08-16,기관,2023-08-13,2023-10-09,기타,37.5726241,126.9760053,무료,https://culture.seoul.go.kr/culture/culture/cultureEvent/view.do?cultcode=142808&menuNo=200009
전시/미술,중구,모두를 위한 모든 길: ALL ways for ALL,2023-08-23~2023-09-02,DDP 뮤지엄 디자인둘레길A,동대문디자인플라자,누구나,,,,,http://ddp.or.kr/index.html?menuno=239&siteno=2&bbsno=485&boardno=15&bbstopno=485&act=view&subno=,https://culture.seoul.go.kr/cmmn/file/getImage.do?atchFileId=8b6dadbf914745e390752ea7e6ea3c02&thumb=Y,2023-08-16,기관,2023-08-23,2023-09-02,기타,37.56681313,127.0096257,무료,https://culture.seoul.go.kr/culture/culture/cultureEvent/view.do?cultcode=142805&menuNo=200009
영화,성북구,"[성북문화재단 아리랑시네센터] 신수원 감독전: 레인보우부터 오마주, 13년",2023-08-25~2023-08-27,아리랑시네센터 아리랑인디웨이브(3층),성북문화재단,누구나,무료,,,,https://blog.naver.com/sbculture1/223174761933,https://culture.seoul.go.kr/cmmn/file/getImage.do?atchFileId=aabf5ace493346d7a4ddd352557e6caf&thumb=Y,2023-08-16,기관,2023-08-25,2023-08-27,,37.60011909,127.0138937,무료,https://culture.seoul.go.kr/culture/culture/cultureEvent/view.do?cultcode=142803&menuNo=200013
콘서트,중구,[서울역사박물관] 재능나눔콘서트 미식음감 '발레가 꽃 핀 도시 & 티본 스테이크의 도시 피렌체',2023-08-19~2023-08-19,서울역사박물관 1층 로비,서울역사박물관,누구나,,,,,https://news.seoul.go.kr/culture/archives/520479,https://culture.seoul.go.kr/cmmn/file/getImage.do?atchFileId=984f691cefc84a8196af06e289d0e609&thumb=Y,2023-08-14,기관,2023-08-19,2023-08-19,기타,37.57050753,126.9705237,무료,https://culture.seoul.go.kr/culture/culture/cultureEvent/view.do?cultcode=142798&menuNo=200008
축제-문화/예술,중구,[서울야외밤도서관] 밤의 여행도서관: 스페인&브라질 편을 소개합니다!,2023-08-19~2023-08-20,서울광장,서울도서관,누구나,,,,,https://lib.seoul.go.kr/bbs/content/3_58251,https://culture.seoul.go.kr/cmmn/file/getImage.do?atchFileId=7aa800668b854af6b9ae6ce0fa3bb6c3&thumb=Y,2023-08-14,기관,2023-08-19,2023-08-20,문화가 있는 날,37.56533387,126.9776978,무료,https://culture.seoul.go.kr/culture/culture/cultureEvent/view.do?cultcode=142797&menuNo=200010
전시/미술,중구,모두의 일상展 Ⅱ,2023-08-16~2023-08-20,충무아트센터 1층 갤러리,중구문화재단,누구나,,,,,https://newsis.com/view/?id=NISX20230814_0002412666&cID=10201&pID=10200,https://culture.seoul.go.kr/cmmn/file/getImage.do?atchFileId=550b2f214052479daaf6d85637bdb060&thumb=Y,2023-08-14,기관,2023-08-16,2023-08-20,,37.56594097,127.0147909,무료,https://culture.seoul.go.kr/culture/culture/cultureEvent/view.do?cultcode=142796&menuNo=200009
전시/미술,성북구,"[성북문화재단 아리랑시네센터] SAC on Screen 전시 [시크릿 뮤지엄], [위대한 낙서] 연속 상영",2023-08-22~2023-08-22,아리랑시네센터 2관(1층),성북문화재단,누구나,무료,,"SAC on Screen 전시 <시크릿 뮤지엄>, <위대한 전시> 연속 상영",,https://cine.arirang.go.kr:8443/arirang/customer/notice.do?mode=view&articleNo=28990&article.offset=0&articleLimit=10,https://culture.seoul.go.kr/cmmn/file/getImage.do?atchFileId=1cacfce5e3874a289a612ae8f2f52402&thumb=Y,2023-08-14,기관,2023-08-22,2023-08-22,,37.60011909,127.0138937,무료,https://culture.seoul.go.kr/culture/culture/cultureEvent/view.do?cultcode=142795&menuNo=200009
교육/체험,노원구,[서울시립과학관] 2023 과학북토크-하반기 달작한 사이언스(8~11월),2023-08-30~2023-11-29,서울시립과학관 1층 사이언스 홀,서울시립과학관,과학에 관심있는 중학생 이상 누구나(선착순 70명),무료,,,,https://science.seoul.go.kr/program/lecture/info?menuId=46&progMstId=647,https://culture.seoul.go.kr/cmmn/file/getImage.do?atchFileId=9967957488904a158ec10d016db71726&thumb=Y,2023-08-14,기관,2023-08-30,2023-11-29,기타,37.64199411,127.0774371,무료,https://culture.seoul.go.kr/culture/culture/cultureEvent/view.do?cultcode=142794&menuNo=200011
교육/체험,종로구,"[공평도시유적전시관] 우리가 만나던 그곳, 종로서적 기획전시 연계 특별 강연",2023-08-18~2023-08-25,공평도시유적전시관 학습실,서울역사박물관,성인,,,"기획전시 <우리가 만나던 그곳, 종로서적> 부대 행사로서 '종로서적을 통해 본 한국 현대 독서문화와 서점의 역사'를 주제로 한 강연",,https://museum.seoul.go.kr/www/board/NR_boardList.do?bbsCd=1005&categoryVal=&sso=ok,https://culture.seoul.go.kr/cmmn/file/getImage.do?atchFileId=3b2459e43c1c45b0bed258809607bd7f&thumb=Y,2023-08-14,기관,2023-08-18,2023-08-25,기타,37.57168081,126.9835303,무료,https://culture.seoul.go.kr/culture/culture/cultureEvent/view.do?cultcode=142793&menuNo=200011
전시/미술,광진구,남수정 기획 초대전,2023-08-16~2023-08-27,세종대학교 대양 AI센터 지하2층,광진구청,전체,,,,,https://blog.naver.com/sejonggallery,https://culture.seoul.go.kr/cmmn/file/getImage.do?atchFileId=eeff127b2e99420eb0db647cfd218549&thumb=Y,2023-08-14,기관,2023-08-16,2023-08-27,기타,37.55079808,127.0745756,무료,https://culture.seoul.go.kr/culture/culture/cultureEvent/view.do?cultcode=142790&menuNo=200009
기타,종로구,"[서울시, 광복절 기념음악회] 8.15 Seoul, My Soul ",2023-08-15~2023-08-15,광화문광장,서울시청,7세 이상,,,,,https://www.sejongpac.or.kr/portal/bbs/B0000001/view.do?nttId=46441&menuNo=200042,https://culture.seoul.go.kr/cmmn/file/getImage.do?atchFileId=ad90c5f039a84cc485c8246df63bb619&thumb=Y,2023-08-14,기관,2023-08-15,2023-08-15,기타,37.57184786,126.9761683,무료,https://culture.seoul.go.kr/culture/culture/cultureEvent/view.do?cultcode=142789&menuNo=200013
교육/체험,은평구,[구산동도서관마을] 장르소설 저자와의 만남 : 괴담과 일상의 풍경에서 진실을 찾다,2023-08-29~2023-08-29,구산동도서관마을 3층 힐링캠프,기타,청소년 이상 누구나,,,,,https://blog.naver.com/gsvlibor/223181252063,https://culture.seoul.go.kr/cmmn/file/getImage.do?atchFileId=7939664b5ec84c8d8130dcd6eb43820a&thumb=Y,2023-08-13,기관,2023-08-29,2023-08-29,,37.60951019,126.9130879,무료,https://culture.seoul.go.kr/culture/culture/cultureEvent/view.do?cultcode=142786&menuNo=200011
기타,마포구,[8월/길위의인문학] (신승수) 사람들이 컬렉션이고 콘텐츠인 도서관,2023-08-30~2023-08-30,마포구립서강도서관 3층 세미나실,마포구청,성인,없음,,,,https://mplib.mapo.go.kr/sglib/MENU1199/PGM3028/eventDetail.do?currentPageNo=1&eventSn=7308,https://culture.seoul.go.kr/cmmn/file/getImage.do?atchFileId=87d5cd7f7d7c4a2db544bd9a2542da34&thumb=Y,2023-08-12,기관,2023-08-30,2023-08-30,기타,37.5477397,126.9320894,무료,https://culture.seoul.go.kr/culture/culture/cultureEvent/view.do?cultcode=142785&menuNo=200013
교육/체험,강서구,"[서울식물원 기획전 빛이 깨울 때,] 전시연계 워크숍 '빛과 명상의 시간'",2023-08-18~2023-08-19,"식물문화센터 프로젝트홀2, 마곡문화관",서울식물원,성인,,,,,https://botanicpark.seoul.go.kr/front/board/newsView.do?sn=10821&searchCondition=&searchKeyword=&pageIndex=1,https://culture.seoul.go.kr/cmmn/file/getImage.do?atchFileId=1b7869e1d9c04095817227bc5137201b&thumb=Y,2023-08-11,기관,2023-08-18,2023-08-19,기타,37.56965709,126.8350072,무료,https://culture.seoul.go.kr/culture/culture/cultureEvent/view.do?cultcode=142780&menuNo=200011
교육/체험,성북구,"[돌곶이생활예술문화센터] 8월 식물놀이터 여름, 잎사귀편",2023-08-19~2023-08-19,돌곶이생활예술문화센터 1층 커뮤니티 라운지,성북문화재단,식물로 재밌게 놀아보고 싶은 주민 누구나,"재료비 : 인당 3,000원",,,,https://www.sbculture.or.kr/culture/bbs/BMSR00005/view.do?boardId=22563&menuNo=500144,https://culture.seoul.go.kr/cmmn/file/getImage.do?atchFileId=8a1fcf975c254c959fb4f0fdf0ed1ecb&thumb=Y,2023-08-11,기관,2023-08-19,2023-08-19,기타,37.60626941,127.058753,유료,https://culture.seoul.go.kr/culture/culture/cultureEvent/view.do?cultcode=142777&menuNo=200011
콘서트,도봉구,2023 도봉 예술인 단체 창작지원사업 [도봉구의 음악버스 정류장],2023-08-13~2023-08-13,창동역 1번 출구 광장,도봉문화재단,누구나,,,,,https://www.dbfac.or.kr/front/supportManageReq/supportManageView.do?miv_pageNo=&miv_pageSize=6&total_cnt=&LISTOP=&mode=V&seq=934&searchkey=NAME&search_gb=&gubun=01&search_gb2=All&gubun2=&searchType=title&searchtxt=,https://culture.seoul.go.kr/cmmn/file/getImage.do?atchFileId=f507c418fc384511ae7c6d5ecd94984e&thumb=Y,2023-08-11,기관,2023-08-13,2023-08-13,기타,37.65225821,127.0454323,무료,https://culture.seoul.go.kr/culture/culture/cultureEvent/view.do?cultcode=142776&menuNo=200008
교육/체험,도봉구,[청소년 예술공간 채움] K-pop 원데이 클래스 강좌 We Can Dance,2023-08-19~2023-08-19,청소년 예술공간 채움,도봉문화재단,10세 ~ 16세,,,,,https://www.dbfac.or.kr/front/supportManageReq/supportManageView.do?miv_pageNo=2&miv_pageSize=6&total_cnt=&LISTOP=&mode=V&seq=932&searchkey=NAME&search_gb=&gubun=05&search_gb2=All&gubun2=&searchType=title&searchtxt=,https://culture.seoul.go.kr/cmmn/file/getImage.do?atchFileId=4fc8590303bd4f799146fe259ca6e0c4&thumb=Y,2023-08-11,기관,2023-08-19,2023-08-19,기타,37.6897507,127.0449195,무료,https://culture.seoul.go.kr/culture/culture/cultureEvent/view.do?cultcode=142775&menuNo=200011
기타,종로구,제78주년 광복절 기념 보신각 타종행사(The Bell-Ringing Ceremony in Celebration of the 78th Gwangbokjeol),2023-08-15~2023-08-15,보신각 일원,서울시청,누구나,,,,,https://culture.seoul.go.kr/culture/main/main.do,https://culture.seoul.go.kr/cmmn/file/getImage.do?atchFileId=af0459e08c7942f3b59250f88ea610f6&thumb=Y,2023-08-11,기관,2023-08-15,2023-08-15,기타,37.56976739,126.9836776,무료,https://culture.seoul.go.kr/culture/culture/cultureEvent/view.do?cultcode=142774&menuNo=200013
교육/체험,도봉구,"[평화문화진지] 지구별 여행자, 고흐",2023-08-09~2023-08-19,평화문화진지,도봉문화재단,7세~성인,"5,000 원",,,,https://www.dbfac.or.kr/front/supportManageReq/supportManageView.do?miv_pageNo=&miv_pageSize=6&total_cnt=&LISTOP=&mode=V&seq=933&searchkey=NAME&search_gb=&gubun=05&search_gb2=All&gubun2=&searchType=title&searchtxt=,https://culture.seoul.go.kr/cmmn/file/getImage.do?atchFileId=974031fa577d459f9275fddf7c5de7b9&thumb=Y,2023-08-11,기관,2023-08-09,2023-08-19,기타,37.69078014,127.0468126,유료,https://culture.seoul.go.kr/culture/culture/cultureEvent/view.do?cultcode=142773&menuNo=200011
국악,구로구,[구로문화재단X한예종 협력 기획공연] 별별(別別)타령,2023-08-26~2023-08-26,구로아트밸리 예술극장,구로문화재단,6세 이상 관람가,,,,,https://www.guroartsvalley.or.kr/user/performance/performanceView.do?performanceSeq=3678&page=1,https://culture.seoul.go.kr/cmmn/file/getImage.do?atchFileId=710e080ed6ea42fabbf5d4196e7f8d75&thumb=Y,2023-08-11,기관,2023-08-26,2023-08-26,기타,37.49655847,126.8889639,무료,https://culture.seoul.go.kr/culture/culture/cultureEvent/view.do?cultcode=142771&menuNo=200008
교육/체험,성북구,2023 서울 문화예술교육 지원사업 프로그램 안내,2023-05-01~2023-11-30,"프로그램 별 상이, 첨부파일 상세 내용 참고",서울문화재단,"프로그램 별 상이, 첨부파일 상세 내용 참고",,,,,https://www.sfac.or.kr/participation/sfac_program.do?eduGubunSel=&pageIndex=&eduMstSeq=32959&eduScheSeq=&mode=VIEW&mstStatus=,https://culture.seoul.go.kr/cmmn/file/getImage.do?atchFileId=28979e68fefe44da954cfa770ac27847&thumb=Y,2023-08-11,기관,2023-05-01,2023-11-30,,37.59915583,127.0147745,무료,https://culture.seoul.go.kr/culture/culture/cultureEvent/view.do?cultcode=142770&menuNo=200011
교육/체험,서대문구,[2023년 파킨슨 환자를 위한 무용 교육 프로그램] 댄스 포 피디(하반기),2023-08-23~2023-11-01,"서울무용센터(서대문구 명지2길 14, 주차 가능)",서울문화재단,파킨슨 환자(보호자 동반 가능),,,,,https://www.sfac.or.kr/participation/sfac_program.do?eduGubunSel=&pageIndex=&eduMstSeq=32952&eduScheSeq=&mode=VIEW&mstStatus=,https://culture.seoul.go.kr/cmmn/file/getImage.do?atchFileId=44e27f9114794e7aa7a4985ad01fd6d4&thumb=Y,2023-08-11,기관,2023-08-23,2023-11-01,,37.58305984,126.9278729,무료,https://culture.seoul.go.kr/culture/culture/cultureEvent/view.do?cultcode=142769&menuNo=200011
전시/미술,종로구,[2023 운현궁 기획전시] 늘봄의 꽃이야기 ,2023-08-15~2023-08-20,운현궁 기획전시실,운현궁,관람객 자유관람(전체관람가),,,,,https://www.unhyeongung.or.kr/sub/prpgram/total_list.php?sno=0&group=basic&code=B35&category=&&abmode=view&no=1200&bsort=&bfsort=,https://culture.seoul.go.kr/cmmn/file/getImage.do?atchFileId=94290d67f8eb4d4ba79591166091bf0c&thumb=Y,2023-08-11,기관,2023-08-15,2023-08-20,기타,37.576125,126.98705,무료,https://culture.seoul.go.kr/culture/culture/cultureEvent/view.do?cultcode=142768&menuNo=200009
교육/체험,종로구,[서울도서관] 움직이는 책방 1회 : 순정책방,2023-08-19~2023-08-19,광화문 라운지 (서울특별시 종로구 세종대로 지하 172_지하철 5호선 광화문역 9번 출구로 나가는 계단 위 공간),서울도서관,시민 누구나,,,,,https://lib.seoul.go.kr/lecture/applyDetail/4483,https://culture.seoul.go.kr/cmmn/file/getImage.do?atchFileId=a333d161e2884ec6a9f6e2bc8f49358a&thumb=Y,2023-08-11,기관,2023-08-19,2023-08-19,기타,37.57184786,126.9761683,무료,https://culture.seoul.go.kr/culture/culture/cultureEvent/view.do?cultcode=142767&menuNo=200011
영화,구로구,[서울아트책보고] 고척스카이돔과 함께하는 원데이 무비나잇,2023-08-25~2023-08-25,서울아트책보고 열린무대,서울아트책보고,12세이상,,,,,https://artbookbogo.kr/seoul/menu/10024/program/30009/cultureDetail.do?currentPageNo=1&cultureIdx=5577&searchCultureTypeCd=ALL&searchOperStatusCd=ALL,https://culture.seoul.go.kr/cmmn/file/getImage.do?atchFileId=c8d03233d4fc4d37b4a2df6a5bd7491d&thumb=Y,2023-08-11,기관,2023-08-25,2023-08-25,,37.49821257,126.8670887,무료,https://culture.seoul.go.kr/culture/culture/cultureEvent/view.do?cultcode=142766&menuNo=200013
전시/미술,중구,[비더비 권오상 초대전] 서울의 멋: 반짝이는 좌대와 사물의 조각들,2023-07-14~2023-10-03,B the B(DDP 마켓 B2),동대문디자인플라자,누구나,,,,,http://ddp.or.kr/index.html?menuno=239&siteno=2&bbsno=481&boardno=15&bbstopno=481&act=view&subno=,https://culture.seoul.go.kr/cmmn/file/getImage.do?atchFileId=780ade39d873438eb219dfc1e3be1efd&thumb=Y,2023-08-11,기관,2023-07-14,2023-10-03,기타,37.56681313,127.0096257,무료,https://culture.seoul.go.kr/culture/culture/cultureEvent/view.do?cultcode=142763&menuNo=200009
전시/미술,종로구,[서울공예박물관] SeMoCA 야간 전시투어,2023-08-08~2023-08-18,서울공예박물관 전시1동 상설전시실,서울공예박물관,"성인, 모든 시민",,,,,https://craftmuseum.seoul.go.kr/progrm/view/201,https://culture.seoul.go.kr/cmmn/file/getImage.do?atchFileId=4cf228c43d4542f8b9d00aa6c35ae074&thumb=Y,2023-08-11,기관,2023-08-08,2023-08-18,기타,37.57664817,126.9835334,무료,https://culture.seoul.go.kr/culture/culture/cultureEvent/view.do?cultcode=142762&menuNo=200009
축제-문화/예술,송파구,[한성백제박물관] 백제 왕도 달빛 기행,2023-08-08~2023-08-20,"한성백제박물관 로비, 전시실, 강당, 잔디밭 등...",한성백제박물관,누구나,,,,,https://baekjemuseum.seoul.go.kr/module/index.jsp?boardid=a&code=EV&mmode=content&mpid=SBM0403000000&pid=21547&strsearch=&d_s_que=&cpage=1,https://culture.seoul.go.kr/cmmn/file/getImage.do?atchFileId=c5d7833652fb4d07a06c76145c546508&thumb=Y,2023-08-11,기관,2023-08-08,2023-08-20,문화가 있는 날,37.51543881,127.1208894,무료,https://culture.seoul.go.kr/culture/culture/cultureEvent/view.do?cultcode=142760&menuNo=200010
교육/체험,은평구,[구립증산정보도서관] 가짜뉴스 걸러내기,2023-08-14~2023-08-31,4층 문화강좌실,은평구청,컴퓨터 사용이 가능 한 성인 성인 10명,,,,,https://www.jsplib.or.kr/culture/event.asp?mode=view&lecture_seq=1765&listname=normal,https://culture.seoul.go.kr/cmmn/file/getImage.do?atchFileId=a4764afae14b4e80bfe6aeabac38806e&thumb=Y,2023-08-10,기관,2023-08-14,2023-08-31,기타,37.582727,126.9075589,무료,https://culture.seoul.go.kr/culture/culture/cultureEvent/view.do?cultcode=142757&menuNo=200011
교육/체험,은평구,2023 예술인파견지원-예술로 협업사업 [나를 돌보는 소리 일기],2023-08-16~2023-09-26,4층 문화강좌실 / 2회차: 외부(불광천),은평구청,양육자 및 관심있는 성인 15명,,,,,https://www.jsplib.or.kr/culture/event.asp?mode=view&lecture_seq=1764&listname=normal,https://culture.seoul.go.kr/cmmn/file/getImage.do?atchFileId=6c47a8dbf2c44365be317ac4aa58390b&thumb=Y,2023-08-10,기관,2023-08-16,2023-09-26,기타,37.582727,126.9075589,무료,https://culture.seoul.go.kr/culture/culture/cultureEvent/view.do?cultcode=142755&menuNo=200011
연극,종로구,"[2023 선돌에 서다, 데뷔전] 연극 깍두기",2023-08-10~2023-08-13,선돌극장,기타,만 13세 이상,"30,000",,,,https://playticket.co.kr/nav/detail.html?idx=2488,https://culture.seoul.go.kr/cmmn/file/getImage.do?atchFileId=2b098a444d2a4660bdf453e107e68377&thumb=Y,2023-08-10,시민,2023-08-10,2023-08-13,,37.58681262,126.9997652,유료,https://culture.seoul.go.kr/culture/culture/cultureEvent/view.do?cultcode=142754&menuNo=200008
축제-문화/예술,중구,[서울야외밤도서관] 밤의 여행도서관: 이집트&UAE 편을 소개합니다!,2023-08-11~2023-08-13,서울광장,서울도서관,누구나,,,,,https://lib.seoul.go.kr/bbs/content/3_58263,https://culture.seoul.go.kr/cmmn/file/getImage.do?atchFileId=0eafdd7252d2440ca1857d96fe505fb3&thumb=Y,2023-08-09,기관,2023-08-11,2023-08-13,문화가 있는 날,37.56533387,126.9776978,무료,https://culture.seoul.go.kr/culture/culture/cultureEvent/view.do?cultcode=142747&menuNo=200010
콘서트,마포구,［서울마포음악창작소］2023 M 인디열전 #3 다양성 [우리들의 소중한 시간],2023-08-26~2023-08-26,서울마포음악창작소,마포문화재단,8세이상관람가[미취학아동입장불가],무료 사전신청,,,,https://www.mfac.or.kr/performance/whole_view.jsp?sc_b_category=17&sc_b_code=BOARD_1207683401&pk_seq=2242&page=1,https://culture.seoul.go.kr/cmmn/file/getImage.do?atchFileId=19b48892279a491a9af6501330042e4b&thumb=Y,2023-08-09,기관,2023-08-26,2023-08-26,,37.55506905,126.9575349,무료,https://culture.seoul.go.kr/culture/culture/cultureEvent/view.do?cultcode=142746&menuNo=200008
교육/체험,마포구,[8월/길위의인문학] (민운기) 골목의 변화 ; '좌충우돌' 배다리마을 지키고 가꾸기 활동 / 골목인문,2023-08-24~2023-08-24,마포구립서강도서관 3층 세미나실,마포구청,성인,없음,,,,https://mplib.mapo.go.kr/sglib/MENU1199/PGM3028/eventDetail.do?currentPageNo=1&eventSn=7267,https://culture.seoul.go.kr/cmmn/file/getImage.do?atchFileId=5896927e59d64ad480091c90d4f6dda8&thumb=Y,2023-08-09,기관,2023-08-24,2023-08-24,기타,37.5477397,126.9320894,무료,https://culture.seoul.go.kr/culture/culture/cultureEvent/view.do?cultcode=142740&menuNo=200011
교육/체험,종로구,"[문화가 있는 날] 덩덩 덩더쿵 우리소리_범, 놀아보자 한판 ",2023-08-26~2023-08-26,우리소리도서관 4층 국악누리방,종로문화재단,"어린이, 성인",,,,,https://www.jfac.or.kr/site/main/program/educ_season_list_view?pgIdx=2085,https://culture.seoul.go.kr/cmmn/file/getImage.do?atchFileId=8e109df5cd9444ea9f4ff0b54e2266a1&thumb=Y,2023-08-09,기관,2023-08-26,2023-08-26,문화가 있는 날,37.57448239,126.9902329,무료,https://culture.seoul.go.kr/culture/culture/cultureEvent/view.do?cultcode=142739&menuNo=200011
교육/체험,,2023 하남문화재단 뮤지컬 캠프 [Catch Your Dream],2023-08-26~2023-08-27,"하남문화예술회관 소극장, 전시장 등 ",기타,청소년(만13세~18세) ,,"배우 정영주, 남경주, 가수 유태양, 최종윤 교수 등  ",,,https://www.hnart.or.kr/artcenter/selectBbsNttView.do?key=191&bbsNo=23&nttNo=5565&searchCtgry=&searchCnd=all&searchKrwd=&pageIndex=1&integrDeptCode=,https://culture.seoul.go.kr/cmmn/file/getImage.do?atchFileId=78b02e4b6f974d9dbec54a44333c8263&thumb=Y,2023-08-09,기관,2023-08-26,2023-08-27,어린이/청소년 문화행사,37.54475416,127.2068381,무료,https://culture.seoul.go.kr/culture/culture/cultureEvent/view.do?cultcode=142737&menuNo=200011
전시/미술,관악구,서울시립 남서울미술관 [공중정원],2023-08-30~2023-11-19,서울시립 남서울미술관,서울시립미술관,누구나,,"고휘, 김준, 양승원, 조이솝, 현남",,,https://sema.seoul.go.kr/kr/whatson/exhibition/detail?exNo=1206392,https://culture.seoul.go.kr/cmmn/file/getImage.do?atchFileId=6d95513d3fe64716995458956f979744&thumb=Y,2023-08-09,기관,2023-08-30,2023-11-19,,37.47605354,126.9794659,무료,https://culture.seoul.go.kr/culture/culture/cultureEvent/view.do?cultcode=142734&menuNo=200009
클래식,강북구,앙상블베르노 정기연주회 [Concerto Session 1],2023-08-31~2023-08-31,북서울꿈의숲아트센터 꿈의숲 콘서트홀,세종문화회관,만 7세 이상(초등학교 이상 관람가) ,"전석 10,000원",,,,https://www.sejongpac.or.kr/portal/performance/performance/view.do?performIdx=34424&menuNo=200004,https://culture.seoul.go.kr/cmmn/file/getImage.do?atchFileId=3db1d5c450ac466e876ec16b3c8378b1&thumb=Y,2023-08-09,기관,2023-08-31,2023-08-31,기타,37.62025446,127.0443247,유료,https://culture.seoul.go.kr/culture/culture/cultureEvent/view.do?cultcode=142733&menuNo=200008
교육/체험,종로구,[서울생활문화센터 체부] 2023 체부 생활문화아카데미 특강,2023-08-03~2023-08-16,서울생활문화센터 체부 체부홀,서울생활문화센터-체부,시민 누구나,,,,,http://www.ccasc.or.kr/bbs/notice_view.php?idx=273&page=1,https://culture.seoul.go.kr/cmmn/file/getImage.do?atchFileId=0612082ff54248948d389857011c46d7&thumb=Y,2023-08-08,기관,2023-08-03,2023-08-16,기타,37.5767085,126.9714894,무료,https://culture.seoul.go.kr/culture/culture/cultureEvent/view.do?cultcode=142729&menuNo=200011
전시/미술,강남구,[무료 전시] 캔버스N갤러리 VIBRANT 글로벌 아티스트 미술작품 소장전,2023-07-21~2023-08-16,캔버스N갤러리,기타,누구나,무료,"키스해링,니카시오 페르난데스,데이지 도드노블,도나 후앙카,마키 호소카와,미도리 사도,미스터 두들,반 레이,사라킴,스스무 카미조,스탠지 휘트니,아야코 룩카쿠,아츠시 카가,애런 존슨,엘리스 주커만,에드가 플랜스,에듀 까릴로,에디강,요시토모 나라,제이미 홈즈,조나단 에델후버,노나스 우드,지비지,캐서린 번하드,캐스린 메이플,토모카즈 마츠야마",캔버스N갤러리에서는 다년간 수집해온 소장품을 기반으로 한국 단색화 거장전에 이어 글로벌 아티스트 소장전을 개최합니다. <<Vibrant: 글로벌 아티스트 소장전>>에서는 7월 21일부터 8월16일까지 전 세계적으로 활동하여 해외는 물론 국내 컬렉터들 사이에서도 유망한 작가 26명의 33점 원화 작품들을 한 자리에서 감상할수 있습니다.,,http://www.canvasn.net/exhibition/vibrant-%EA%B8%80%EB%A1%9C%EB%B2%8C-%EC%95%84%ED%8B%B0%EC%8A%A4%ED%8A%B8-%EC%86%8C%EC%9E%A5%EC%A0%84/?sca=Current,https://culture.seoul.go.kr/cmmn/file/getImage.do?atchFileId=7cf94bfbff824877b1a6feef24100653&thumb=Y,2023-08-08,시민,2023-07-21,2023-08-16,기타,37.52756204,127.0360402,무료,https://culture.seoul.go.kr/culture/culture/cultureEvent/view.do?cultcode=142728&menuNo=200009
교육/체험,은평구,[구립증산정보도서관] 8월 꼬마북클럽 '구리와 구라의 헤엄치기',2023-08-14~2023-08-21,2층 소강당,은평구청,"6~7세 유아 12명 (17,18년 출생)",,,,,https://www.jsplib.or.kr/culture/event.asp?mode=view&lecture_seq=1763&listname=normal,https://culture.seoul.go.kr/cmmn/file/getImage.do?atchFileId=1d04c5fba9c848c99d25249c63ceec8c&thumb=Y,2023-08-08,기관,2023-08-14,2023-08-21,어린이/청소년 문화행사,37.582727,126.9075589,무료,https://culture.seoul.go.kr/culture/culture/cultureEvent/view.do?cultcode=142727&menuNo=200011
전시/미술,종로구,[2023 운현궁 기획전시] 야경,2023-08-08~2023-08-13,운현궁 기획전시실,운현궁,관람객 자유 관람(전체 관람가),,,,,https://www.unhyeongung.or.kr/sub/prpgram/total_list.php?sno=0&group=basic&code=B35&category=&&abmode=view&no=1189&bsort=&bfsort=,https://culture.seoul.go.kr/cmmn/file/getImage.do?atchFileId=434b2156e2624c77b68bdb191ee10f4d&thumb=Y,2023-08-08,기관,2023-08-08,2023-08-13,기타,37.576125,126.98705,무료,https://culture.seoul.go.kr/culture/culture/cultureEvent/view.do?cultcode=142718&menuNo=200009
전시/미술,중구,TOCOTOCO JIN'S 개인전 [RIDING THE WAVE],2023-08-10~2023-08-31,"YK Presents, 서울시 중구 을지로43길 13 대화빌딩 지하 1층",중구청,전 연령,,,,,https://booking.naver.com/booking/6/bizes/596550,https://culture.seoul.go.kr/cmmn/file/getImage.do?atchFileId=f3a8b35fd3d64b0a831146b6842d140b&thumb=Y,2023-08-07,시민,2023-08-10,2023-08-31,,37.56689793,127.0068075,무료,https://culture.seoul.go.kr/culture/culture/cultureEvent/view.do?cultcode=142716&menuNo=200009
클래식,종로구,김민영 귀국 피아노 독주회,2023-08-30~2023-08-30,세종체임버홀,세종문화회관,미취학아동 입장불가,"전석 30,000원",,,,https://www.sejongpac.or.kr/portal/performance/performance/view.do?performIdx=34291&menuNo=200004,https://culture.seoul.go.kr/cmmn/file/getImage.do?atchFileId=f23a1206759f4df78067599816dc62e6&thumb=Y,2023-08-07,기관,2023-08-30,2023-08-30,,37.5726241,126.9760053,유료,https://culture.seoul.go.kr/culture/culture/cultureEvent/view.do?cultcode=142715&menuNo=200008
클래식,종로구,소프라노 이한나 & 더블베이스 정하영 듀오 콘서트,2023-08-29~2023-08-29,세종체임버홀,세종문화회관,초등학생 이상 관람 가능,"전석 40,000원",,,,https://www.sejongpac.or.kr/portal/performance/performance/view.do?performIdx=34370&menuNo=200004,https://culture.seoul.go.kr/cmmn/file/getImage.do?atchFileId=2678f5c8eea24085b15163b513ac59b2&thumb=Y,2023-08-07,기관,2023-08-29,2023-08-29,,37.5726241,126.9760053,유료,https://culture.seoul.go.kr/culture/culture/cultureEvent/view.do?cultcode=142714&menuNo=200008
클래식,강북구,이수성 피아노 독주회/작곡가 시리즈 2/베토벤-悲壯,2023-08-29~2023-08-29,꿈의숲 콘서트홀,세종문화회관,만 5세 이상,"전석 10,000원",,,,https://www.sejongpac.or.kr/portal/performance/performance/view.do?performIdx=34238&menuNo=200004,https://culture.seoul.go.kr/cmmn/file/getImage.do?atchFileId=eeab8970b548464a91520d26d50cf262&thumb=Y,2023-08-07,기관,2023-08-29,2023-08-29,,37.62025446,127.0443247,유료,https://culture.seoul.go.kr/culture/culture/cultureEvent/view.do?cultcode=142713&menuNo=200008
클래식,종로구,8월 천원의 행복 II [한여름 밤의 영화와 클래식 with 김석훈],2023-08-29~2023-08-29,세종대극장,세종문화회관,만7세(2016년) 이상 ,"전석 1,000원",,,,https://www.sejongpac.or.kr/portal/performance/performance/view.do?performIdx=33957&menuNo=200004,https://culture.seoul.go.kr/cmmn/file/getImage.do?atchFileId=6ecc5879d646474aa6239592213df8e5&thumb=Y,2023-08-07,기관,2023-08-29,2023-08-29,기타,37.5726241,126.9760053,유료,https://culture.seoul.go.kr/culture/culture/cultureEvent/view.do?cultcode=142712&menuNo=200008
교육/체험,중구,가나아트 컬렉션 기획상설전 [80 도시현실] 연계 강연 프로그램,2023-08-29~2023-09-26,서울시립미술관 서소문본관 B1 세마홀,서울시립미술관,성인,,,,,https://sema.seoul.go.kr/kr/whatson/education/detail?acadmyEeNo=1203332,https://culture.seoul.go.kr/cmmn/file/getImage.do?atchFileId=e51e1dee452c452c898e1d54c329d71b&thumb=Y,2023-08-07,기관,2023-08-29,2023-09-26,기타,37.56410607,126.9736993,무료,https://culture.seoul.go.kr/culture/culture/cultureEvent/view.do?cultcode=142711&menuNo=200011
교육/체험,구로구,[모든 여행이 치유였어] 호림작가의 컬러 위를 걷기(워킹온더컬러),2023-08-20~2023-08-20,서울아트책보고 해보고 워크숍룸,서울아트책보고,성인,,,,,https://artbookbogo.kr/seoul/menu/10024/program/30009/cultureDetail.do?currentPageNo=1&cultureIdx=5559&searchCultureTypeCd=ALL&searchOperStatusCd=ALL,https://culture.seoul.go.kr/cmmn/file/getImage.do?atchFileId=ef24a4a5269b4f1f8528f2512e27a372&thumb=Y,2023-08-07,기관,2023-08-20,2023-08-20,기타,37.49821257,126.8670887,무료,https://culture.seoul.go.kr/culture/culture/cultureEvent/view.do?cultcode=142708&menuNo=200011
전시/미술,구로구,[모든 여행이 치유였어] 호림 작가의 'Walking on the Color' 사진전,2023-08-13~2023-08-20,서울아트책보고 중정광장,서울아트책보고,누구나,,,,,https://artbookbogo.kr/seoul/menu/10024/program/30009/cultureDetail.do?currentPageNo=1&cultureIdx=5557&searchCultureTypeCd=ALL&searchOperStatusCd=ALL,https://culture.seoul.go.kr/cmmn/file/getImage.do?atchFileId=0c60f31979f14483a26f247bc75c0423&thumb=Y,2023-08-07,기관,2023-08-13,2023-08-20,기타,37.49821257,126.8670887,무료,https://culture.seoul.go.kr/culture/culture/cultureEvent/view.do?cultcode=142707&menuNo=200009
전시/미술,종로구,[서울역사박물관] 대전엑스포’93 30주년 기념 특별공동기획전 [대전엑스포’93: 과학 신화가 현실로],2023-08-08~2023-11-05,서울역사박물관 로비전시실,서울역사박물관,누구나,,,,,https://museum.seoul.go.kr/www/board/NR_boardList.do?bbsCd=1004&sso=ok,https://culture.seoul.go.kr/cmmn/file/getImage.do?atchFileId=8f7a6abd051f46cab49c8b5e6c0dbce8&thumb=Y,2023-08-07,기관,2023-08-08,2023-11-05,,37.57050753,126.9705237,무료,https://culture.seoul.go.kr/culture/culture/cultureEvent/view.do?cultcode=142703&menuNo=200009
교육/체험,동대문구,[2023년 쫌쫌따리 문화모아] 동그란 자유: 세상을 거꾸로 볼 자you,2023-08-11~2023-11-03,카페프로젝트이응,동대문문화재단,서울시 청년,,,,,https://www.instagram.com/p/CvMnhEuJGJL/,https://culture.seoul.go.kr/cmmn/file/getImage.do?atchFileId=850b6c78e3df4ff18c3c92b3718012cf&thumb=Y,2023-08-06,시민,2023-08-11,2023-11-03,기타,37.57531065,127.0467486,무료,https://culture.seoul.go.kr/culture/culture/cultureEvent/view.do?cultcode=142701&menuNo=200011
전시/미술,광진구,김정희 기획초대전,2023-08-02~2023-08-13,세종대학교 대양AI 센터 지하2층,광진구청,전체,,,,,https://blog.naver.com/sejonggallery,https://culture.seoul.go.kr/cmmn/file/getImage.do?atchFileId=7333ed308f8f4c2081fff4026847328b&thumb=Y,2023-08-05,기관,2023-08-02,2023-08-13,기타,37.55079808,127.0745756,무료,https://culture.seoul.go.kr/culture/culture/cultureEvent/view.do?cultcode=142700&menuNo=200009
교육/체험,마포구,[마포구립 서강도서관/ 8월/어린이메이킹] 해봄이웃집Maker '그림책큐브',2023-08-19~2023-08-19,마포구립서강도서관 4층 어린이자료실 내 해봄,마포구청,어린이,없음,,,,https://mplib.mapo.go.kr/sglib/PGM3028/eventDetail.do?eventSn=7247,https://culture.seoul.go.kr/cmmn/file/getImage.do?atchFileId=5ece2c04765b488fab72f5cea5330fbc&thumb=Y,2023-08-05,기관,2023-08-19,2023-08-19,어린이/청소년 문화행사,37.5477397,126.9320894,무료,https://culture.seoul.go.kr/culture/culture/cultureEvent/view.do?cultcode=142699&menuNo=200011
전시/미술,종로구,계속되는 여정 : 서울,2023-08-31~2023-09-23,공근혜갤러리,기타,"남녀노소, 내,외국인 모두",,,,,https://konggallery.com/UPCOMING,https://culture.seoul.go.kr/cmmn/file/getImage.do?atchFileId=19a0ebb71d1d47f0a04e8a13cc130762&thumb=Y,2023-08-05,시민,2023-08-31,2023-09-23,문화가 있는 날,37.5840296,126.9796748,무료,https://culture.seoul.go.kr/culture/culture/cultureEvent/view.do?cultcode=142698&menuNo=200009
교육/체험,은평구,"[구산동도서관마을] 박물관 소풍, 아무때나 가볍게! 김서울 저자와의 만남",2023-08-31~2023-08-31,구산동도서관마을 3층 힐링캠프,기타,청소년 이상 누구나,,,,,https://www.gsvlib.or.kr/culture/event.asp?mode=view&lecture_seq=624,https://culture.seoul.go.kr/cmmn/file/getImage.do?atchFileId=ad2b4795f3de4f4fae32e242aaf8cc08&thumb=Y,2023-08-04,기관,2023-08-31,2023-08-31,,37.60951019,126.9130879,무료,https://culture.seoul.go.kr/culture/culture/cultureEvent/view.do?cultcode=142696&menuNo=200011
전시/미술,중랑구,기획전 [뉴올드 플레이룸],2023-08-02~2023-08-18,중랑아트센터 제1전시실,중랑문화재단,전체관람가,,,,,https://www.jnac.or.kr/exhibition/exhibit_view.html?pid=99,https://culture.seoul.go.kr/cmmn/file/getImage.do?atchFileId=f2cdf8a58fed4eea98fa9fbd961e70b7&thumb=Y,2023-08-04,기관,2023-08-02,2023-08-18,기타,37.59821055,127.091519,무료,https://culture.seoul.go.kr/culture/culture/cultureEvent/view.do?cultcode=142695&menuNo=200009
클래식,강동구,TIMF 앙상블X아트프로젝트 보라 [발레 메카닉],2023-08-19~2023-08-20,강동아트센터 소극장 드림,강동문화재단,8세이상 관람가,"R석 30,000원 S석 15,000원",,,,http://www.gdfac.or.kr/web/lay2/program/S1T204C211/show/view.do?show_seq=1961&cpage=1&rows=999&keyword=&place=&start_dt=&end_dt=,https://culture.seoul.go.kr/cmmn/file/getImage.do?atchFileId=d9b3722a294d4b4abf31b4eb4a4565a2&thumb=Y,2023-08-04,기관,2023-08-19,2023-08-20,기타,37.55122046,127.1573425,유료,https://culture.seoul.go.kr/culture/culture/cultureEvent/view.do?cultcode=142694&menuNo=200008
연극,은평구,시간과 기억의 기다림 [초월과 진관사 태극기],2023-08-15~2023-08-15,은평문화예술회관 공연장,은평문화재단,취학아동 이상,,,,,https://www.efac.or.kr//sub01/sub01.php?type=view&uid=3575,https://culture.seoul.go.kr/cmmn/file/getImage.do?atchFileId=ac13fdb237944d6491f8debb67afce8a&thumb=Y,2023-08-04,기관,2023-08-15,2023-08-15,문화가 있는 날,37.6039163,126.9283646,무료,https://culture.seoul.go.kr/culture/culture/cultureEvent/view.do?cultcode=142693&menuNo=200008
전시/미술,성북구,[성북문화재단] 하이퍼링크 : 시각예술분야 에버레버 아트 프로젝트,2023-08-03~2023-08-19,공간1 - 성북예술창작터(성북구 성북로23)  공간2 - 아트노이드178 (성북구 삼선교로6길 8-5 지하1층)  공간3 - 오뉴월 이주헌(성북구 성북로8길 8-6)  공간4 - 옵스큐라(성북구 성북로23길 164)  공간5 - 17717 (성북구 성북로8길 11 지하1층),성북문화재단,누구나,,,,,https://www.sbculture.or.kr/culture/bbs/BMSR00005/view.do?boardId=22520&menuNo=500144,https://culture.seoul.go.kr/cmmn/file/getImage.do?atchFileId=fd62cdc697ad406b8007711c8531b733&thumb=Y,2023-08-04,기관,2023-08-03,2023-08-19,기타,37.59005225,127.004123,무료,https://culture.seoul.go.kr/culture/culture/cultureEvent/view.do?cultcode=142692&menuNo=200009
교육/체험,도봉구,[도봉문화재단] 하반기 정기강좌 프로그램 [연극으로 만드는 나의 이야기],2023-08-23~2023-11-01,마을극장 흰고무신 2층 공연장,도봉문화재단,도봉구 내 성인 및 시니어,,,,,https://www.dbfac.or.kr/front/supportManageReq/supportManageView.do?miv_pageNo=&miv_pageSize=6&total_cnt=&LISTOP=&mode=V&seq=929&searchkey=NAME&search_gb=&gubun=05&search_gb2=All&gubun2=&searchType=title&searchtxt=,https://culture.seoul.go.kr/cmmn/file/getImage.do?atchFileId=21c2890e056d436c9a9cb5e58db7da94&thumb=Y,2023-08-04,기관,2023-08-23,2023-11-01,기타,37.66812722,127.0315428,무료,https://culture.seoul.go.kr/culture/culture/cultureEvent/view.do?cultcode=142691&menuNo=200011
연극,노원구,인형극 [더미러 & 그것 참 좋타!],2023-08-17~2023-08-18,노원어린이극장,노원문화재단,5세이상,"전석 20,000원",,,,https://www.nowonarts.kr/html/pe/performancedetail.php?param_url=https%3A%2F%2Fwww.nowonarts.kr%2Fhtml%2Fpe%2Fperformanceinfo.php%3F%26cate%3D%26skin%3D%26search_state%3D1%26search_syear%3D%26search_smonth%3D%26search_eyear%3D%26search_emonth%3D%26search_order%3D%26search_startPage%3D&idx=337,https://culture.seoul.go.kr/cmmn/file/getImage.do?atchFileId=1c0f797762044ef58fd4de5c665b4453&thumb=Y,2023-08-04,기관,2023-08-17,2023-08-18,어린이/청소년 문화행사,37.65445005,127.0636923,유료,https://culture.seoul.go.kr/culture/culture/cultureEvent/view.do?cultcode=142690&menuNo=200008
교육/체험,노원구,"2023 인문학북콘서트 [인지하지 못했던 사사로운 것들] 2회차 '나의 색, 우리의 빛' ",2023-08-19~2023-08-19,노원문화예술회관 소공연장,노원문화재단,8세 이상 관람가,,,,,https://www.nowonarts.kr/html/pe/performancedetail.php?param_url=https%3A%2F%2Fwww.nowonarts.kr%2Fhtml%2Fpe%2Fperformanceinfo.php%3F%26cate%3D%26skin%3D%26search_state%3D1%26search_syear%3D%26search_smonth%3D%26search_eyear%3D%26search_emonth%3D%26search_order%3D%26search_startPage%3D&idx=340,https://culture.seoul.go.kr/cmmn/file/getImage.do?atchFileId=f15df649baa94b06b42bc11a6af5def2&thumb=Y,2023-08-04,기관,2023-08-19,2023-08-19,기타,37.65023685,127.0802671,무료,https://culture.seoul.go.kr/culture/culture/cultureEvent/view.do?cultcode=142689&menuNo=200011
교육/체험,서초구,서리풀청년아트갤러리 오프라인 문화강좌 [아뜰리에 서리풀],2023-02-01~2023-12-08,서리풀청년아트갤러리,서초문화재단,참여를 원하는 누구나,,,,,https://www.seochocf.or.kr/site/main/seocho/show/view?show_idx=586,https://culture.seoul.go.kr/cmmn/file/getImage.do?atchFileId=293b6202d9ca406c8a1fdaba0eff8bd0&thumb=Y,2023-08-04,기관,2023-02-01,2023-12-08,기타,37.48113823,127.013504,무료,https://culture.seoul.go.kr/culture/culture/cultureEvent/view.do?cultcode=142685&menuNo=200011
전시/미술,서초구,서리풀청년아트갤러리 [공동의 자아_우리가 도시를 기억하는 법 II],2023-08-05~2023-09-01,서리풀청년아트갤러리,서초문화재단,전체관람,,,,,https://www.seochocf.or.kr/site/main/seocho/show/view?show_idx=608,https://culture.seoul.go.kr/cmmn/file/getImage.do?atchFileId=0f0227ec9ec14383a5bc6a2537ef50ca&thumb=Y,2023-08-04,기관,2023-08-05,2023-09-01,기타,37.48113823,127.013504,무료,https://culture.seoul.go.kr/culture/culture/cultureEvent/view.do?cultcode=142683&menuNo=200009
클래식,서초구,[클래식다방] 음악플러스아트홀 '색소폰의 A to Z',2023-08-26~2023-08-26,음악플러스아트홀,서초문화재단,전체관람가,전석 1만원 / 서초구민 50% 할인,,,,https://www.seochocf.or.kr/site/main/seocho/show/view?show_idx=603,https://culture.seoul.go.kr/cmmn/file/getImage.do?atchFileId=703722a7c42e44c7b24f0bf860cd8cd7&thumb=Y,2023-08-04,기관,2023-08-26,2023-08-26,기타,37.48319029,127.0107176,유료,https://culture.seoul.go.kr/culture/culture/cultureEvent/view.do?cultcode=142681&menuNo=200008
연극,종로구,2023 키우피우 해외작품 패키지,2023-08-04~2023-08-22,해당공연 공연장-서울,종로문화재단,36개월이상 입장 가능,"28,000원",,,,https://www.jfac.or.kr/site/child/childProgram/view?pgIdx=285&pgCatCode=,https://culture.seoul.go.kr/cmmn/file/getImage.do?atchFileId=6e7f1e47efc64173a2db5accfe063910&thumb=Y,2023-08-04,기관,2023-08-04,2023-08-22,어린이/청소년 문화행사,37.59046055,126.9987986,유료,https://culture.seoul.go.kr/culture/culture/cultureEvent/view.do?cultcode=142680&menuNo=200008
교육/체험,금천구,[금천문화재단] 움직이는 동화극 ‘나무 이야기’,2023-08-11~2023-08-12,만천명월 예술인가 지하1층 만천홀,금천문화재단,36개월 이전 영유아와 가족 25쌍,무료,,,,https://gcfac.or.kr/board/noticeDetail?notice_gb=&board_seq=8195&gcfac_menu_cd=U0139&currRow=1&scType=all&srch_input=,https://culture.seoul.go.kr/cmmn/file/getImage.do?atchFileId=44b62954acfa4286b6b1ba194e547aae&thumb=Y,2023-08-04,기관,2023-08-11,2023-08-12,기타,37.45069768,126.9074454,무료,https://culture.seoul.go.kr/culture/culture/cultureEvent/view.do?cultcode=142676&menuNo=200011
전시/미술,종로구,2023 무계원×주한독일문화원 협력전시 [카메라 속삭임],2023-08-03~2023-08-10,"무계원 전통문화공간 무계원 안채, 사랑채",종로문화재단,전체관람가,,,,,https://www.jfac.or.kr/site/main/program/perf_all_list_view?pgIdx=2082,https://culture.seoul.go.kr/cmmn/file/getImage.do?atchFileId=a2852474c02942979bc60aad29a3b11e&thumb=Y,2023-08-04,기관,2023-08-03,2023-08-10,기타,37.5918679,126.9634368,무료,https://culture.seoul.go.kr/culture/culture/cultureEvent/view.do?cultcode=142675&menuNo=200009
전시/미술,강남구,인터참코리아,2023-08-30~2023-09-01,"코엑스 C,D홀",강남구청,성인,"현장 구매 10,000원 / 사전등록시 무료",,,,https://www.intercharmkorea.com/ko-kr.html,https://culture.seoul.go.kr/cmmn/file/getImage.do?atchFileId=d94674181d5d408ba7e762f59eb28c35&thumb=Y,2023-08-04,기관,2023-08-30,2023-09-01,기타,37.5103947,127.0611127,유료,https://culture.seoul.go.kr/culture/culture/cultureEvent/view.do?cultcode=142674&menuNo=200009
무용,마포구,"발레 [안중근, 천국에서의 춤] 2023 K-BALLET 프로젝트",2023-08-11~2023-08-12,마포아트센터 아트홀맥,마포문화재단,7세 이상," R석(1층) 60,000원 S석(2층) 40,000원",,,,https://www.mfac.or.kr/performance/whole_view.jsp?sc_b_category=17&sc_b_code=BOARD_1207683401&pk_seq=2230&page=1,https://culture.seoul.go.kr/cmmn/file/getImage.do?atchFileId=f4e7c43ad39f47acbf0a8b5eacef1abb&thumb=Y,2023-08-04,기관,2023-08-11,2023-08-12,기타,37.54990609,126.9455338,유료,https://culture.seoul.go.kr/culture/culture/cultureEvent/view.do?cultcode=142673&menuNo=200008
영화,중구,중구영화극장 8월 여름방학 특집 프로그램,2023-08-03~2023-08-31,충무아트센터 소극장 블루,중구문화재단,영화 별 상이,전석무료(1인 최대 4매 사전예매 필수),,,,https://www.caci.or.kr/caci/performance/view.do?menuNo=200006&pblprfrId=1496,https://culture.seoul.go.kr/cmmn/file/getImage.do?atchFileId=d4e610abd7d14ca9a11b23bd3f50ed07&thumb=Y,2023-08-04,기관,2023-08-03,2023-08-31,기타,37.56594097,127.0147909,무료,https://culture.seoul.go.kr/culture/culture/cultureEvent/view.do?cultcode=142671&menuNo=200013
영화,구로구,[서울아트책보고] 수요영화살롱 8월,2023-08-23~2023-08-23,서울아트책보고 해보고 워크샵룸,서울아트책보고,누구나(정원 20명),,,,,https://artbookbogo.kr/seoul/menu/10024/program/30009/cultureDetail.do?currentPageNo=1&cultureIdx=5550&searchCultureTypeCd=ALL&searchOperStatusCd=ALL,https://culture.seoul.go.kr/cmmn/file/getImage.do?atchFileId=fb464329c530442ba1f245409efeda00&thumb=Y,2023-08-04,기관,2023-08-23,2023-08-23,기타,37.49821257,126.8670887,무료,https://culture.seoul.go.kr/culture/culture/cultureEvent/view.do?cultcode=142668&menuNo=200013
축제-기타,성동구,"2023 서울숲 푸른밤 축제, '야호夜好! 서울숲'",2023-08-11~2023-08-19,서울숲 야외무대 등,서울시청,누구나,,,,,https://parks.seoul.go.kr/story/news/detailView.do?bIdx=3152,https://culture.seoul.go.kr/cmmn/file/getImage.do?atchFileId=a2c19262c8294e31bc00d9be89be9940&thumb=Y,2023-08-04,기관,2023-08-11,2023-08-19,기타,37.54307015,127.0417991,무료,https://culture.seoul.go.kr/culture/culture/cultureEvent/view.do?cultcode=142667&menuNo=200010
전시/미술,용산구,마케마케의 첫전시 [RENATA],2023-08-11~2023-08-16,갤러리 필로소피,용산구청,누구나,무료관람,마케마케,,,https://www.instagram.com/p/CvfStbCpXR9/?utm_source=ig_web_copy_link&igshid=MzRlODBiNWFlZA==,https://culture.seoul.go.kr/cmmn/file/getImage.do?atchFileId=265ff75188ed4f80895d62b620510e2e&thumb=Y,2023-08-04,시민,2023-08-11,2023-08-16,,37.5380834,126.9897352,무료,https://culture.seoul.go.kr/culture/culture/cultureEvent/view.do?cultcode=142665&menuNo=200009
기타,마포구,"[길위의인문학] 서강도서관 (정명섭) 기록하는 즐거움, 골목의 이야기 / 골목인문 미래①",2023-08-19~2023-08-19,마포구립 서강도서관 3층 세미나실,마포구청,성인,없음,,,,https://mplib.mapo.go.kr/sglib/MENU1199/PGM3028/eventDetail.do?currentPageNo=1&eventSn=7227,https://culture.seoul.go.kr/cmmn/file/getImage.do?atchFileId=d7dc220b637541a98d67a1f5049e6fdf&thumb=Y,2023-08-03,기관,2023-08-19,2023-08-19,기타,37.5477397,126.9320894,무료,https://culture.seoul.go.kr/culture/culture/cultureEvent/view.do?cultcode=142664&menuNo=200013
콘서트,광진구,도심 속에서 즐기는 음악 소풍! [피크닉 인 나루],2023-08-26~2023-08-26,서울어린이대공원 숲속의무대,광진문화재단,전체 연령 관람,,,,,https://www.naruart.or.kr/bbs/board.php?bo_table=performance&wr_id=839&page=3,https://culture.seoul.go.kr/cmmn/file/getImage.do?atchFileId=f6e289b4fb9e4e36ae7f3ce19dd58019&thumb=Y,2023-08-03,기관,2023-08-26,2023-08-26,문화가 있는 날,37.54885118,127.0799839,무료,https://culture.seoul.go.kr/culture/culture/cultureEvent/view.do?cultcode=142662&menuNo=200008
축제-문화/예술,종로구,누워서 세계속으로 : 밤의 여행도서관 아일랜드편(8.4.~6.),2023-08-04~2023-08-06,서울광장,서울도서관,시민 누구나,,,,,https://lib.seoul.go.kr/bbs/content/3_58214,https://culture.seoul.go.kr/cmmn/file/getImage.do?atchFileId=1f20d83530ee4a2ba5305b486e0695ad&thumb=Y,2023-08-03,기관,2023-08-04,2023-08-06,기타,37.56533387,126.9776978,무료,https://culture.seoul.go.kr/culture/culture/cultureEvent/view.do?cultcode=142661&menuNo=200010
전시/미술,종로구,[아뜰리에 광화] 2023 광장으로의 초대 이중섭,2023-08-01~2023-12-13,세종문화회관 외벽 미디어갤러리,서울시청,전체관람가,,,,,https://news.seoul.go.kr/culture/archives/520347,https://culture.seoul.go.kr/cmmn/file/getImage.do?atchFileId=1ee52bf5d94647bc9f677aa64092c1ed&thumb=Y,2023-08-03,기관,2023-08-01,2023-12-13,기타,37.57184786,126.9761683,무료,https://culture.seoul.go.kr/culture/culture/cultureEvent/view.do?cultcode=142660&menuNo=200009
클래식,종로구,바이올리니스트 허은무와 함께 하는 앙상블 판 정기연주회 2023,2023-08-28~2023-08-28,세종체임버홀,세종문화회관,미취학아동입장불가,"전석 20,000원",,,,https://www.sejongpac.or.kr/portal/performance/performance/view.do?performIdx=34323&menuNo=200004,https://culture.seoul.go.kr/cmmn/file/getImage.do?atchFileId=b38f8cbb40bb47239149e09ff0fe0912&thumb=Y,2023-08-03,기관,2023-08-28,2023-08-28,,37.5726241,126.9760053,유료,https://culture.seoul.go.kr/culture/culture/cultureEvent/view.do?cultcode=142658&menuNo=200008
클래식,강북구,New Artist Concert,2023-08-27~2023-08-27,꿈의숲 콘서트홀,세종문화회관,7세 이상 관람가,전석 초대,,,,https://www.sejongpac.or.kr/portal/performance/performance/view.do?performIdx=34230&menuNo=200004,https://culture.seoul.go.kr/cmmn/file/getImage.do?atchFileId=6a91e9db2e074ba3bf2576d7b6f69123&thumb=Y,2023-08-03,기관,2023-08-27,2023-08-27,기타,37.62025446,127.0443247,유료,https://culture.seoul.go.kr/culture/culture/cultureEvent/view.do?cultcode=142657&menuNo=200008
클래식,종로구,화음챔버오케스트라 청소년 음악회,2023-08-26~2023-08-26,세종체임버홀,세종문화회관,7세이상 (2016년 12월 31일 출생자까지),"일반석 30,000원",,,,https://www.sejongpac.or.kr/portal/performance/performance/view.do?performIdx=34379&menuNo=200004,https://culture.seoul.go.kr/cmmn/file/getImage.do?atchFileId=c60778b0ff5a45afa5f53cca9201ce7c&thumb=Y,2023-08-03,기관,2023-08-26,2023-08-26,,37.5726241,126.9760053,유료,https://culture.seoul.go.kr/culture/culture/cultureEvent/view.do?cultcode=142656&menuNo=200008
무용,강북구,(가제)덤덤_주인이자 노예인 바보들,2023-08-26~2023-08-27,꿈의숲 퍼포먼스홀,세종문화회관,만 12세 이상,"전석 10,000원",,,,https://www.sejongpac.or.kr/portal/performance/performance/view.do?performIdx=34388&menuNo=200004,https://culture.seoul.go.kr/cmmn/file/getImage.do?atchFileId=b94ff70dd7444c1bb1da1ad2495deb3f&thumb=Y,2023-08-03,기관,2023-08-26,2023-08-27,기타,37.62025446,127.0443247,유료,https://culture.seoul.go.kr/culture/culture/cultureEvent/view.do?cultcode=142655&menuNo=200008
클래식,강북구,Summer Jazz Trip,2023-08-26~2023-08-26,꿈의숲 콘서트홀,세종문화회관,만 12세이상 관람가능,"VIP석 20,000원 / R석 15,000원",,,,https://www.sejongpac.or.kr/portal/performance/performance/view.do?performIdx=34217&menuNo=200004,https://culture.seoul.go.kr/cmmn/file/getImage.do?atchFileId=6503d78b712b48c6890e0de6246d7e6b&thumb=Y,2023-08-03,기관,2023-08-26,2023-08-26,,37.62025446,127.0443247,유료,https://culture.seoul.go.kr/culture/culture/cultureEvent/view.do?cultcode=142654&menuNo=200008
전시/미술,서대문구,LUCA KEEM 개인전,2023-08-07~2023-08-13,앤드뉴갤러리 B1,기타,누구나,무료,LUCA KEEM,무의식적이고 잠재적인 본래의 나를 발견하는 재인식의 과정으로서  기억의 덩어리를 색을 통해 이미지화한 작품 전시,,https://www.instagram.com/p/CvUq8GXJeQ1/?utm_source=ig_web_copy_link&igshid=MzRlODBiNWFlZA==,https://culture.seoul.go.kr/cmmn/file/getImage.do?atchFileId=17d5bb74ad6c4ed7aed9dd21494730e6&thumb=Y,2023-08-03,기관,2023-08-07,2023-08-13,기타,37.55886566,126.9400664,무료,https://culture.seoul.go.kr/culture/culture/cultureEvent/view.do?cultcode=142653&menuNo=200009
무용,종로구,앰비규어스 댄스컴퍼니 [클럽앰비guous Dance Company / Club Ambi규어스 댄스 컴퍼니],2023-08-25~2023-08-26,광화문 광장,세종문화회관,성인(2004년생) 이상 입장 권장,"전석 무료, 스탠딩 공연 (일부 객석 사전관람신청)",,,,https://www.sejongpac.or.kr/portal/performance/performance/view.do?performIdx=34352&menuNo=200004,https://culture.seoul.go.kr/cmmn/file/getImage.do?atchFileId=37405ae1dcbc4f57aa3c7216db3cab81&thumb=Y,2023-08-03,기관,2023-08-25,2023-08-26,문화가 있는 날,37.57184786,126.9761683,유료,https://culture.seoul.go.kr/culture/culture/cultureEvent/view.do?cultcode=142652&menuNo=200008
교육/체험,송파구,[서울책보고 인문학강연8월] 말을 잘한다는 것(정연주 아나운서),2023-08-24~2023-08-24,서울책보고,서울책보고,관심있는 시민 누구나,,,,,https://seoulbookbogo.kr/front/index.php?g_page=event&m_page=event01&act=View&D_IDX=3863&ViewType=List,https://culture.seoul.go.kr/cmmn/file/getImage.do?atchFileId=f184f23ab219442ca6449c21b5a5feb8&thumb=Y,2023-08-03,기관,2023-08-24,2023-08-24,기타,37.5223926,127.102983,무료,https://culture.seoul.go.kr/culture/culture/cultureEvent/view.do?cultcode=142647&menuNo=200011
전시/미술,은평구,"묶다, 잇다, 엮다",2023-07-06~2023-09-10,삼각산금암미술관 기획전시실,은평역사한옥박물관,누구나,,,,,https://museum.ep.go.kr/experience/exhibit_now.asp,https://culture.seoul.go.kr/cmmn/file/getImage.do?atchFileId=2f384d2480d243ffb96747187a7c11ee&thumb=Y,2023-08-02,기관,2023-07-06,2023-09-10,,37.64162803,126.9409111,무료,https://culture.seoul.go.kr/culture/culture/cultureEvent/view.do?cultcode=142646&menuNo=200009
전시/미술,은평구,"삼국의 여인들, 새로운 세계를 열다",2023-08-04~2023-10-29,은평역사한옥박물관 기획전시실,은평역사한옥박물관,누구나,,,,,https://museum.ep.go.kr/exhibit/special/special1.asp,https://culture.seoul.go.kr/cmmn/file/getImage.do?atchFileId=eb5e64c6d3574d07964ead9119c814dc&thumb=Y,2023-08-02,기관,2023-08-04,2023-10-29,,37.64040095,126.9380555,무료,https://culture.seoul.go.kr/culture/culture/cultureEvent/view.do?cultcode=142645&menuNo=200009
교육/체험,종로구,"[서울역사박물관] Visit Museum, Enjoy SEOUL",2023-01-17~2023-11-30,서울역사박물관,서울역사박물관,외국인 단체 대상,,,,,https://museum.seoul.go.kr/www/board/NR_boardList.do?bbsCd=1005&categoryVal=,https://culture.seoul.go.kr/cmmn/file/getImage.do?atchFileId=66f95e40fba64d3faf748d651999ad5b&thumb=Y,2023-08-02,기관,2023-01-17,2023-11-30,,37.57050753,126.9705237,무료,https://culture.seoul.go.kr/culture/culture/cultureEvent/view.do?cultcode=142643&menuNo=200011
교육/체험,은평구,[은평문화재단] 우리 아빠의 레코드 가게 vol.3,2023-08-08~2023-08-08, 유튜브 라이브 '예빈송 하우스' ,은평문화재단,관심 있는 시민 누구나,,,,,https://www.efac.or.kr/sub06/sub01.php?type=view&uid=3580,https://culture.seoul.go.kr/cmmn/file/getImage.do?atchFileId=5535a40bc3e5446aa667a5418f99e1d5&thumb=Y,2023-08-02,기관,2023-08-08,2023-08-08,기타,37.6039163,126.9283646,무료,https://culture.seoul.go.kr/culture/culture/cultureEvent/view.do?cultcode=142640&menuNo=200011
교육/체험,은평구,[구립증산정보도서관] 8월 어린이 독서퀴즈,2023-08-07~2023-08-30,3층 어린이열람실,은평구청,초등학생 (은평구공공도서관 정회원),,,,,https://www.jsplib.or.kr/culture/event.asp?mode=view&lecture_seq=1762&listname=normal,https://culture.seoul.go.kr/cmmn/file/getImage.do?atchFileId=2d731090604144fc9ea1374a9fd54ef1&thumb=Y,2023-08-02,기관,2023-08-07,2023-08-30,어린이/청소년 문화행사,37.582727,126.9075589,무료,https://culture.seoul.go.kr/culture/culture/cultureEvent/view.do?cultcode=142639&menuNo=200011
전시/미술,은평구,[2023 테마전시] 책 따라 걷는 도서관 8월 원화전시 - 초록초록,2023-08-07~2023-08-26,3층 어린이 열람실 및 로비,은평구청,누구나,,,,,https://www.jsplib.or.kr/culture/event.asp?mode=view&lecture_seq=1761&listname=normal,https://culture.seoul.go.kr/cmmn/file/getImage.do?atchFileId=6559096c11f942f69b9be84812161071&thumb=Y,2023-08-02,기관,2023-08-07,2023-08-26,어린이/청소년 문화행사,37.582727,126.9075589,무료,https://culture.seoul.go.kr/culture/culture/cultureEvent/view.do?cultcode=142637&menuNo=200009
클래식,종로구,유럽의 중심에서 실내악을 노래하다,2023-08-25~2023-08-25,세종체임버홀,세종문화회관,취학아동부터 입장 가능,"전석 10,000원",,<html><head></head><body spellcheck=,,https://www.sejongpac.or.kr/portal/performance/performance/view.do?performIdx=34336&menuNo=200004,https://culture.seoul.go.kr/cmmn/file/getImage.do?atchFileId=a5ff257764d549329d4168ca5e40418e&thumb=Y,2023-08-02,기관,2023-08-25,2023-08-25,,37.5726241,126.9760053,유료,https://culture.seoul.go.kr/culture/culture/cultureEvent/view.do?cultcode=142636&menuNo=200008
교육/체험,은평구,"[8월 책 읽어주는 사서] 우리 계속, 함께 책 읽자!",2023-08-09~2023-08-23,1층 가족열람실,은평구청,동화책을 좋아하는 유아 친구들 누구나,,,,,https://www.jsplib.or.kr/culture/event.asp?mode=view&lecture_seq=1760&listname=normal,https://culture.seoul.go.kr/cmmn/file/getImage.do?atchFileId=dad3a97845414b2c9039d8d45e09123e&thumb=Y,2023-08-02,기관,2023-08-09,2023-08-23,어린이/청소년 문화행사,37.582727,126.9075589,무료,https://culture.seoul.go.kr/culture/culture/cultureEvent/view.do?cultcode=142635&menuNo=200011
클래식,강북구,박슬기 & 김재민 듀오콘서트,2023-08-24~2023-08-24,꿈의숲 콘서트홀,세종문화회관,초등학생이상 관람가,"전석 20,000원",,,,https://www.sejongpac.or.kr/portal/performance/performance/view.do?performIdx=34373&menuNo=200004,https://culture.seoul.go.kr/cmmn/file/getImage.do?atchFileId=4835aecdcf134f2e87532d97bfd11dd5&thumb=Y,2023-08-02,기관,2023-08-24,2023-08-24,,37.62025446,127.0443247,유료,https://culture.seoul.go.kr/culture/culture/cultureEvent/view.do?cultcode=142633&menuNo=200008
교육/체험,은평구,[은평구 도서관형 메이커 창작 문화 확산 사업] 창의력 폭발! 신나는 코딩 어드벤처,2023-08-07~2023-08-13,지하 1층 문화강좌실,은평구청,초등학교 1~3학년 어린이 10명,,,,,https://www.jsplib.or.kr/culture/event.asp?mode=view&lecture_seq=1759&listname=normal,https://culture.seoul.go.kr/cmmn/file/getImage.do?atchFileId=70d6ec4fbe7d48d7b94b5d0691e26ae1&thumb=Y,2023-08-02,기관,2023-08-07,2023-08-13,어린이/청소년 문화행사,37.582727,126.9075589,무료,https://culture.seoul.go.kr/culture/culture/cultureEvent/view.do?cultcode=142632&menuNo=200011
클래식,종로구,제9회 ScenTrio 정기연주회,2023-08-24~2023-08-24,세종체임버홀,세종문화회관,7세 이상 (2016년 12월 31일 출생자까지),"전석 20,000원",,,,https://www.sejongpac.or.kr/portal/performance/performance/view.do?performIdx=34317&menuNo=200004,https://culture.seoul.go.kr/cmmn/file/getImage.do?atchFileId=68be200d38654aafb177b75fe36b8b25&thumb=Y,2023-08-02,기관,2023-08-24,2023-08-24,,37.5726241,126.9760053,유료,https://culture.seoul.go.kr/culture/culture/cultureEvent/view.do?cultcode=142631&menuNo=200008
전시/미술,은평구,[8월 테마전시체험전 테마로 즐기는 도서관2] 쓰담쓰담,2023-08-05~2023-08-23,1층 로비 및 가족열람실,은평구청,누구나,,,,,https://www.jsplib.or.kr/culture/event.asp?mode=view&lecture_seq=1758&listname=normal,https://culture.seoul.go.kr/cmmn/file/getImage.do?atchFileId=c524d413d71840839e2b9ea938dcb9e2&thumb=Y,2023-08-02,기관,2023-08-05,2023-08-23,기타,37.582727,126.9075589,무료,https://culture.seoul.go.kr/culture/culture/cultureEvent/view.do?cultcode=142630&menuNo=200009
클래식,종로구,작곡가 이안삼 3주기 추모 제3회 이안삼 가곡제,2023-08-23~2023-08-23,세종체임버홀,세종문화회관,초등학생 이상 관람,"전석 40,000원",,,,https://www.sejongpac.or.kr/portal/performance/performance/view.do?performIdx=34346&menuNo=200004,https://culture.seoul.go.kr/cmmn/file/getImage.do?atchFileId=29affcde93f5467eac5d67263ed6afc5&thumb=Y,2023-08-02,기관,2023-08-23,2023-08-23,,37.5726241,126.9760053,유료,https://culture.seoul.go.kr/culture/culture/cultureEvent/view.do?cultcode=142629&menuNo=200008
교육/체험,은평구,[여름방학 맞이 프로그램] 전설따라 도서관 - 2탄 태양 왕 수바 : 수박의 전설,2023-08-07~2023-08-16,4층 문화강좌실,은평구청,초등 1~3학년 어린이 12명,,,,,https://www.jsplib.or.kr/culture/event.asp?mode=view&lecture_seq=1757&listname=normal,https://culture.seoul.go.kr/cmmn/file/getImage.do?atchFileId=f4c06a152732456e88a0e76c86689daa&thumb=Y,2023-08-02,기관,2023-08-07,2023-08-16,어린이/청소년 문화행사,37.582727,126.9075589,무료,https://culture.seoul.go.kr/culture/culture/cultureEvent/view.do?cultcode=142628&menuNo=200011
교육/체험,은평구,독서달리기 대회 연계 프로그램 [작가와 함께 하는 초등 글쓰기 비밀수업],2023-08-08~2023-08-18,온라인(줌),은평구청,초등 1~4학년 30명,,,,,https://www.jsplib.or.kr/culture/event.asp?mode=view&lecture_seq=1756&listname=normal,https://culture.seoul.go.kr/cmmn/file/getImage.do?atchFileId=94051e4fee6c4f2ea9b2254012fd1d33&thumb=Y,2023-08-02,기관,2023-08-08,2023-08-18,어린이/청소년 문화행사,37.582727,126.9075589,무료,https://culture.seoul.go.kr/culture/culture/cultureEvent/view.do?cultcode=142627&menuNo=200011
전시/미술,종로구,2023 Think Fun!,2023-08-08~2023-09-04,세종이야기전시장,세종문화회관,전 연령 관람가능 ,,,,,https://www.sejongpac.or.kr/portal/performance/performance/view.do?performIdx=34383&menuNo=200004,https://culture.seoul.go.kr/cmmn/file/getImage.do?atchFileId=a8bf3091fd6c426fae860daa8d985bd9&thumb=Y,2023-08-02,기관,2023-08-08,2023-09-04,기타,37.5726241,126.9760053,무료,https://culture.seoul.go.kr/culture/culture/cultureEvent/view.do?cultcode=142626&menuNo=200009
클래식,종로구,허자현 피아노 독주회,2023-08-22~2023-08-22,세종체임버홀,세종문화회관,만7세이상 (미취학아동입장불가),"전석 30,000원",,,,https://www.sejongpac.or.kr/portal/performance/performance/view.do?performIdx=34368&menuNo=200004,https://culture.seoul.go.kr/cmmn/file/getImage.do?atchFileId=e4b2319df81b4107a1727e0cffd6ab61&thumb=Y,2023-08-02,기관,2023-08-22,2023-08-22,,37.5726241,126.9760053,유료,https://culture.seoul.go.kr/culture/culture/cultureEvent/view.do?cultcode=142624&menuNo=200008
교육/체험,종로구,[2023 운현궁 문화강좌] 하반기 수강생 모집 안내,2023-08-08~2023-09-01,운현궁,운현궁,"대학생, 직장인 등 성인","8주 - 120,000원(재료비는 개강 후 강사에게 별도 납부)",,,,https://www.unhyeongung.or.kr/sub/prpgram/total_list.php?sno=0&group=basic&code=B35&category=&&abmode=view&no=1188&bsort=&bfsort=,https://culture.seoul.go.kr/cmmn/file/getImage.do?atchFileId=b519d7a5d8a44726a399eeba3fb5c3aa&thumb=Y,2023-08-02,기관,2023-08-08,2023-09-01,기타,37.576125,126.98705,유료,https://culture.seoul.go.kr/culture/culture/cultureEvent/view.do?cultcode=142623&menuNo=200011
국악,종로구,"춤의 정원(庭園) : 최경자, 춤선을 담다-궁중춤예술연구원",2023-08-29~2023-08-29,서울돈화문국악당,서울돈화문국악당,전체관람가,"전석 20,000원",,,,https://sdtt.or.kr/user/program/2023/8/1398,https://culture.seoul.go.kr/cmmn/file/getImage.do?atchFileId=e4e8c4b08faa49a3a1d5c720082d0dce&thumb=Y,2023-08-02,기관,2023-08-29,2023-08-29,기타,37.57725028,126.9907307,유료,https://culture.seoul.go.kr/culture/culture/cultureEvent/view.do?cultcode=142622&menuNo=200008
전시/미술,종로구,"[서울시립 미술아카이브] 라스트 제너레이션에게, 김용익",2023-08-24~2023-11-19,서울시립 미술아카이브,서울시립미술관,누구나,,,,,https://sema.seoul.go.kr/kr/whatson/exhibition/detail?exNo=1205862,https://culture.seoul.go.kr/cmmn/file/getImage.do?atchFileId=06ea02ef7791430b8a97ae7403102958&thumb=Y,2023-08-02,기관,2023-08-24,2023-11-19,,37.60780084,126.9719018,무료,https://culture.seoul.go.kr/culture/culture/cultureEvent/view.do?cultcode=142621&menuNo=200009
전시/미술,,제17회 서울대공원 식충식물 전시회,2023-08-01~2023-08-20,"서울대공원 식물원 (식충식물전시관, 식충식물 교육실)",서울대공원,전체관람가,,,,,https://grandpark.seoul.go.kr/munhwa/munhwaView/ko/S001005001004.do?pageIndex=1&mh_no=46132&search_gubun=&searchWord=,https://culture.seoul.go.kr/cmmn/file/getImage.do?atchFileId=e0139b0bab8e489bbd3e5b08308e0717&thumb=Y,2023-08-02,기관,2023-08-01,2023-08-20,기타,37.43643055,127.0140984,무료,https://culture.seoul.go.kr/culture/culture/cultureEvent/view.do?cultcode=142620&menuNo=200009
콘서트,종로구,문화가 흐르는 예술마당 8월 공연,2023-08-02~2023-08-30,"광화문광장 놀이마당, 노들섬 잔디마당",노들섬,시민 누구나,,,,,https://cultureseoul.co.kr/2023/?p=0201&local=1,https://culture.seoul.go.kr/cmmn/file/getImage.do?atchFileId=b4fb7b39a3974d239609f4eb2a102bcd&thumb=Y,2023-08-02,기관,2023-08-02,2023-08-30,문화가 있는 날,37.57184786,126.9761683,무료,https://culture.seoul.go.kr/culture/culture/cultureEvent/view.do?cultcode=142619&menuNo=200008
전시/미술,관악구,관악아트홀 기획전시 [의자의 꿈],2023-08-04~2023-08-22,관악아트홀 전시실,관악문화재단,누구나,,,,,https://www.gfac.or.kr/html/notify/notify1_view.html?pk=1690621953515-8b042eb2-9578-4475-bdc1-57140d286a7f,https://culture.seoul.go.kr/cmmn/file/getImage.do?atchFileId=36b28073164340bcaf0c10c1066a1b3b&thumb=Y,2023-08-01,기관,2023-08-04,2023-08-22,기타,37.46755336,126.9449624,무료,https://culture.seoul.go.kr/culture/culture/cultureEvent/view.do?cultcode=142618&menuNo=200009
교육/체험,종로구,[서울무형문화재교육전시장] 2023년 심야공방 안내,2023-05-02~2023-10-06,서울무형문화재 돈화문 교육진시장,서울무형문화재기능보존회,관심 있는 시민 누구나,,,,,http://www.seoulmaster.co.kr/bbs/board.php?bo_table=bbs1&wr_id=133,https://culture.seoul.go.kr/cmmn/file/getImage.do?atchFileId=5c144029bead4d0f8a4eef87fe2a8872&thumb=Y,2023-08-01,기관,2023-05-02,2023-10-06,기타,37.57693514,126.9911045,무료,https://culture.seoul.go.kr/culture/culture/cultureEvent/view.do?cultcode=142616&menuNo=200011
클래식,종로구,The Pianissimo 음악예술학회 정기연주회,2023-08-21~2023-08-21,세종체임버홀,세종문화회관,만 6세 이상 (2016년 12월 31일 출생자까지),"전석 20,000원",,,,https://www.sejongpac.or.kr/portal/performance/performance/view.do?performIdx=34339&menuNo=200004,https://culture.seoul.go.kr/cmmn/file/getImage.do?atchFileId=a166dc5507a4416c9223d5c357770605&thumb=Y,2023-08-01,기관,2023-08-21,2023-08-21,기타,37.5726241,126.9760053,유료,https://culture.seoul.go.kr/culture/culture/cultureEvent/view.do?cultcode=142615&menuNo=200008
축제-문화/예술,중구,DJ [광. 놀],2023-08-19~2023-08-19,광화문 광장,세종문화회관,중학생 이상 입장 권장,"전석 무료, 스탠딩 공연 (일부 객석 사전관람신청)",,,,https://www.sejongpac.or.kr/portal/performance/performance/view.do?performIdx=34351&menuNo=200004,https://culture.seoul.go.kr/cmmn/file/getImage.do?atchFileId=9a37839dde5e449f9930d2c76a869cd8&thumb=Y,2023-08-01,기관,2023-08-19,2023-08-19,기타,37.57184786,126.9761683,유료,https://culture.seoul.go.kr/culture/culture/cultureEvent/view.do?cultcode=142614&menuNo=200010
클래식,종로구,2023 8월 천원의 행복 I _ 신한음악상과 함께하는 [S-Classic Week],2023-08-19~2023-08-19,세종체임버홀,세종문화회관,"8세 이상 (취학아동 입장, 2016년 생) ","전석 1,000원",,,,https://www.sejongpac.or.kr/portal/performance/performance/view.do?performIdx=33956&menuNo=200004,https://culture.seoul.go.kr/cmmn/file/getImage.do?atchFileId=123ec7711de249a1b78817d5cd7eb803&thumb=Y,2023-08-01,기관,2023-08-19,2023-08-19,기타,37.5726241,126.9760053,유료,https://culture.seoul.go.kr/culture/culture/cultureEvent/view.do?cultcode=142613&menuNo=200008
콘서트,강북구,2023 N개의서울 [슈퍼밴드] VOL.2 두번째이야기,2023-08-12~2023-08-12,강북문화예술회관 강북진달래홀,강북문화재단,누구나,전액무료,지역 예술인,전문예술인으로 성장하기를 꿈꾸는 3인의 몽상가들 이야기,,http://www.gbcf.or.kr/load.asp?subPage=110.View&page=1&idx=160,https://culture.seoul.go.kr/cmmn/file/getImage.do?atchFileId=1d8a1e437d03427ea666787eca8347a2&thumb=Y,2023-08-01,기관,2023-08-12,2023-08-12,기타,37.64083273,127.0132678,무료,https://culture.seoul.go.kr/culture/culture/cultureEvent/view.do?cultcode=142612&menuNo=200008
클래식,강북구,젊은 날의 말러가 노래한 삶과 사랑 - 1,2023-08-18~2023-08-18,꿈의숲 콘서트홀,세종문화회관,만7세 이상,"전석 30,000원",,,,https://www.sejongpac.or.kr/portal/performance/performance/view.do?performIdx=34372&menuNo=200004,https://culture.seoul.go.kr/cmmn/file/getImage.do?atchFileId=f4815283b700442c8602852df66cac71&thumb=Y,2023-08-01,기관,2023-08-18,2023-08-18,,37.62025446,127.0443247,유료,https://culture.seoul.go.kr/culture/culture/cultureEvent/view.do?cultcode=142610&menuNo=200008
교육/체험,용산구,[노들컬처아카데미] 전시 도슨트 아카데미 - 심화,2023-08-30~2023-09-22,노들섬 노들라운지,노들섬,전시 분야에 관심 있는 만 18세 이상 누구나 ※자립준비청년 우선 선발,"일반인 50,000원 / 자립준비청년 무료",,,,https://nodeul.org/program/%eb%85%b8%eb%93%a4%ec%bb%ac%ec%b2%98%ec%95%84%ec%b9%b4%eb%8d%b0%eb%af%b8-%ec%a0%84%ec%8b%9c-%eb%8f%84%ec%8a%a8%ed%8a%b8-%ec%95%84%ec%b9%b4%eb%8d%b0%eb%af%b8-%ec%8b%ac%ed%99%94-2/,https://culture.seoul.go.kr/cmmn/file/getImage.do?atchFileId=53a8317db34d447c93f14536fabdcf51&thumb=Y,2023-08-01,기관,2023-08-30,2023-09-22,기타,37.51766383,126.9580365,유료,https://culture.seoul.go.kr/culture/culture/cultureEvent/view.do?cultcode=142609&menuNo=200011
교육/체험,송파구,[여가/관광 2회차] 2023 서울시민관광 아카데미 ,2023-08-29~2023-08-31,서울책보고,기타,서울 거주 시민,,,,,https://www.sto-academy.com/service-page/2%ED%9A%8C%EC%B0%A8-%EC%97%AC%EA%B0%80-%EA%B4%80%EA%B4%91-%EA%B0%95%EC%A2%8C-%ED%95%A8%EA%BB%98%ED%95%98%EB%8A%94-%EC%B1%85%EB%B0%A9-%EC%9D%B4%EC%95%BC%EA%B8%B0?category=f25aa60c-a574-4de5-9b22-44017f4a2637&referral=service_list_widget,https://culture.seoul.go.kr/cmmn/file/getImage.do?atchFileId=909749c6418c47e4994ed727ee0eec97&thumb=Y,2023-08-01,기관,2023-08-29,2023-08-31,기타,37.5223926,127.102983,무료,https://culture.seoul.go.kr/culture/culture/cultureEvent/view.do?cultcode=142608&menuNo=200011
콘서트,중구,디스코 익스피리언스 [나랏말ㅆㆍ미 풍악에 울려],2023-08-18~2023-08-18,광화문 광장,세종문화회관,중학생 이상 입장 권장,"전석 무료, 스탠딩 공연 (일부 객석 사전관람신청)",,,,https://www.sejongpac.or.kr/portal/performance/performance/view.do?performIdx=34350&menuNo=200004,https://culture.seoul.go.kr/cmmn/file/getImage.do?atchFileId=389387e2b28940ec96fc0d3fa4c3062d&thumb=Y,2023-08-01,기관,2023-08-18,2023-08-18,기타,37.57184786,126.9761683,유료,https://culture.seoul.go.kr/culture/culture/cultureEvent/view.do?cultcode=142607&menuNo=200008
교육/체험,,[한국저작권위원회] 23년 8월. 무료 온라인 저작권 교육 안내,2023-08-01~2023-08-31,온라인(저작권 e-배움터 홈페이지),기타,전국민 누구나(연령제한 없음),,,,,https://edu-copyright.or.kr/user/main/main.do,https://culture.seoul.go.kr/cmmn/file/getImage.do?atchFileId=9a7049ea436246548df1d82efba84a64&thumb=Y,2023-08-01,시민,2023-08-01,2023-08-31,기타,37.5520064,126.9801413,무료,https://culture.seoul.go.kr/culture/culture/cultureEvent/view.do?cultcode=142606&menuNo=200011
뮤지컬/오페라,강북구,뮤지컬 [꽃슈스],2023-08-18~2023-08-20,꿈의숲 퍼포먼스홀,북서울꿈의숲,7세 이상 관람가 (미취학 아동은 보호자 동반 하에 입장 가능),"전석 40,000원",,,,https://www.sejongpac.or.kr/portal/performance/performance/view.do?performIdx=34378&menuNo=200004,https://culture.seoul.go.kr/cmmn/file/getImage.do?atchFileId=972e02e1e7344bb6a63d5a08fadd48a4&thumb=Y,2023-08-01,기관,2023-08-18,2023-08-20,,37.62025446,127.0443247,유료,https://culture.seoul.go.kr/culture/culture/cultureEvent/view.do?cultcode=142605&menuNo=200008
클래식,강북구,청소년 음악회:베토벤과 슈베르트,2023-08-17~2023-08-17,꿈의숲 콘서트홀,세종문화회관,만 7세 이상,"전석 20,000원",,,,https://www.sejongpac.or.kr/portal/performance/performance/view.do?performIdx=34367&menuNo=200004,https://culture.seoul.go.kr/cmmn/file/getImage.do?atchFileId=28e031ae228b4d56bb88908019e277b8&thumb=Y,2023-08-01,기관,2023-08-17,2023-08-17,,37.62025446,127.0443247,유료,https://culture.seoul.go.kr/culture/culture/cultureEvent/view.do?cultcode=142604&menuNo=200008
교육/체험,송파구,2023 서울책보고 독립책방 북콘서트 No.2,2023-08-17~2023-08-17,서울책보고,서울책보고,누구나 (선착순 50명),,,,,https://seoulbookbogo.kr/front/index.php?g_page=event&m_page=event01&act=View&D_IDX=3843&ViewType=List,https://culture.seoul.go.kr/cmmn/file/getImage.do?atchFileId=0809b6b8063c407c9776c187a629c926&thumb=Y,2023-08-01,기관,2023-08-17,2023-08-17,기타,37.5223926,127.102983,무료,https://culture.seoul.go.kr/culture/culture/cultureEvent/view.do?cultcode=142602&menuNo=200011
전시/미술,,국립현대미술관 청주 다원예술 2023 릴레이 퍼포먼스,2023-08-04~2023-08-25,국립현대미술관 청주,국립현대미술관,누구나,,"노혜리+엄지은, 제너럴쿤스트, 이양희, 요한한+아슈라프 툴룹, 영다이 ",《국립현대미술관 청주 다원예술 2023 릴레이 퍼포먼스》는 8월 매주 금요일 다양한 형식의 퍼포먼스가 펼쳐집니다.,,https://mmca.go.kr/exhibitions/exhibitionsDetail.do?menuId=1020000000&exhId=202307200001674,https://culture.seoul.go.kr/cmmn/file/getImage.do?atchFileId=486095198ee54e1d98b04a19538c1627&thumb=Y,2023-07-31,기관,2023-08-04,2023-08-25,기타,37.56608683,126.9737258,무료,https://culture.seoul.go.kr/culture/culture/cultureEvent/view.do?cultcode=142601&menuNo=200009
교육/체험,종로구,[돈의문박물관마을] 2023 하반기 한옥예술체험 예술가의 시간,2023-08-03~2023-12-31,돈의문박물관마을 일대,돈의문박물관마을,홈페이지 참고,홈페이지 참고,,,,https://dmvillage.info/news/?q=YToxOntzOjEyOiJrZXl3b3JkX3R5cGUiO3M6MzoiYWxsIjt9&bmode=view&idx=15890481&t=board,https://culture.seoul.go.kr/cmmn/file/getImage.do?atchFileId=fa4901b01b7145ac9595352450d7a410&thumb=Y,2023-07-31,기관,2023-08-03,2023-12-31,기타,37.56882395,126.9685231,유료,https://culture.seoul.go.kr/culture/culture/cultureEvent/view.do?cultcode=142600&menuNo=200011
연극,성동구,연극 [말괄량이 길들이기],2023-08-19~2023-08-27,성수아트홀,성동문화재단,16세 이상(2007년 이전 출생자),"전석 20,000원",,,,https://www.sdfac.or.kr/kor/sdfac/performance/plan_view.do?p_idx=900&page=1&p_kind=&s_idx=&s_keyword=,https://culture.seoul.go.kr/cmmn/file/getImage.do?atchFileId=bcb4c8df6dec45009e411db88856ff54&thumb=Y,2023-07-31,기관,2023-08-19,2023-08-27,기타,37.54541449,127.0469742,유료,https://culture.seoul.go.kr/culture/culture/cultureEvent/view.do?cultcode=142599&menuNo=200008
연극,성동구,연극 [펜스 너머로 가을바람이 불기 시작해],2023-08-12~2023-08-13,성수아트홀,성동문화재단,10세 이상,"전석 20,000원",,,,https://www.sdfac.or.kr/kor/sdfac/performance/plan_view.do?p_idx=895&page=1&p_kind=&s_idx=&s_keyword=,https://culture.seoul.go.kr/cmmn/file/getImage.do?atchFileId=f20c4cca15f3464daa56f64216ccd0cf&thumb=Y,2023-07-31,기관,2023-08-12,2023-08-13,,37.54541449,127.0469742,유료,https://culture.seoul.go.kr/culture/culture/cultureEvent/view.do?cultcode=142598&menuNo=200008
뮤지컬/오페라,성동구,샌드아트와 해설이 있는 가족 오페라 [신데렐라의 모래 이야기],2023-08-26~2023-08-26,소월아트홀,성동문화재단,36개월 이상 관람가,"전석 30,000원",,,,https://www.sdfac.or.kr/kor/sdfac/performance/plan_view.do?p_idx=896&page=1&p_kind=&s_idx=&s_keyword=,https://culture.seoul.go.kr/cmmn/file/getImage.do?atchFileId=dd894b231e934e67b3a27315a761e966&thumb=Y,2023-07-31,기관,2023-08-26,2023-08-26,기타,37.5593204,127.036016,유료,https://culture.seoul.go.kr/culture/culture/cultureEvent/view.do?cultcode=142597&menuNo=200008
콘서트,양천구,2023 월간뮤지크 [조선블루스],2023-08-30~2023-08-30,양천문화회관 대극장,양천문화재단,초등학생 이상,"1층 2만원, 2층 1만원",,,,https://yfac.kr/main/site/ticket/page1.do?proc_type=view&tidx=206&prepage=%2Fmain%2Fsite%2Fticket%2Fpage1.do,https://culture.seoul.go.kr/cmmn/file/getImage.do?atchFileId=5ab04ef8f8c14f8bae9c3b7c608890d4&thumb=Y,2023-07-31,기관,2023-08-30,2023-08-30,기타,37.51652093,126.86334,유료,https://culture.seoul.go.kr/culture/culture/cultureEvent/view.do?cultcode=142596&menuNo=200008
무용,강동구,8월 한밤의 공연 산책 [해설이 있는 발레],2023-08-25~2023-08-25,강동아트센터 소극장 드림,강동문화재단,36개월 이상 관람가,"전석 20,000원",,,,http://www.gdfac.or.kr/web/lay2/program/S1T204C211/show/view.do?show_seq=1969&cpage=1&rows=999&keyword=&place=&start_dt=&end_dt=,https://culture.seoul.go.kr/cmmn/file/getImage.do?atchFileId=ca9815de4c5145bdac7ce8bef2c3e253&thumb=Y,2023-07-31,기관,2023-08-25,2023-08-25,기타,37.55122046,127.1573425,유료,https://culture.seoul.go.kr/culture/culture/cultureEvent/view.do?cultcode=142595&menuNo=200008
클래식,종로구,문세희 피아노 독주회,2023-08-15~2023-08-15,세종체임버홀,세종문화회관,2016년 12월 31일 출생자까지,"전석 20,000원",,,,https://www.sejongpac.or.kr/portal/performance/performance/view.do?performIdx=34337&menuNo=200004,https://culture.seoul.go.kr/cmmn/file/getImage.do?atchFileId=5e29c313bf6f4eed823e439e25a45193&thumb=Y,2023-07-31,기관,2023-08-15,2023-08-15,,37.5726241,126.9760053,유료,https://culture.seoul.go.kr/culture/culture/cultureEvent/view.do?cultcode=142594&menuNo=200008
연극,강북구,백설공주,2023-08-15~2023-08-16,꿈의숲 퍼포먼스홀,세종문화회관,24개월 이상 입장(23개월 이하 입장 불가),"30,000원",,,,https://www.sejongpac.or.kr/portal/performance/performance/view.do?performIdx=34374&menuNo=200004,https://culture.seoul.go.kr/cmmn/file/getImage.do?atchFileId=aa38ec19430b431496b5e9a79b2daeff&thumb=Y,2023-07-31,기관,2023-08-15,2023-08-16,기타,37.62025446,127.0443247,유료,https://culture.seoul.go.kr/culture/culture/cultureEvent/view.do?cultcode=142593&menuNo=200008
클래식,강북구,"삶, 모험 그리고 환상",2023-08-12~2023-08-12,꿈의숲 콘서트홀,세종문화회관,8세 이상 관람 가능,"전석 20,000원",,,,https://www.sejongpac.or.kr/portal/performance/performance/view.do?performIdx=34276&menuNo=200004,https://culture.seoul.go.kr/cmmn/file/getImage.do?atchFileId=6d39b14c7d864ab8942760deff7706a8&thumb=Y,2023-07-31,기관,2023-08-12,2023-08-12,,37.62025446,127.0443247,유료,https://culture.seoul.go.kr/culture/culture/cultureEvent/view.do?cultcode=142591&menuNo=200008
클래식,종로구,해설이 있는 청소년음악회 감탄사 시리즈,2023-08-12~2023-08-12,세종체임버홀,세종문화회관,2018년생 이상 관람 가능,"R석 20,000원, S석 15,000원, A석 10,000원",,,,https://www.sejongpac.or.kr/portal/performance/performance/view.do?performIdx=34347&menuNo=200004,https://culture.seoul.go.kr/cmmn/file/getImage.do?atchFileId=9ec839d5e1954652b83d2eb580b69181&thumb=Y,2023-07-31,기관,2023-08-12,2023-08-12,,37.5726241,126.9760053,유료,https://culture.seoul.go.kr/culture/culture/cultureEvent/view.do?cultcode=142590&menuNo=200008
전시/미술,종로구,[2023 운현궁 하우스뮤지엄] 제9회 설경규방공예연구회 정기전시회,2023-08-09~2023-12-20,운현궁 기획전시실,운현궁,관람객 자유관람(전체관람가),,,,,https://www.unhyeongung.or.kr/sub/prpgram/total_list.php?sno=0&group=basic&code=B35&category=&&abmode=view&no=1187&bsort=&bfsort=,https://culture.seoul.go.kr/cmmn/file/getImage.do?atchFileId=16f8f4f2eb134869b60d98b8e1d7b4a9&thumb=Y,2023-07-31,기관,2023-08-09,2023-12-20,,37.576125,126.98705,무료,https://culture.seoul.go.kr/culture/culture/cultureEvent/view.do?cultcode=142588&menuNo=200009
전시/미술,광진구,황지연 기획초대전,2023-07-05~2023-07-16,대양 AI센터 지하2층,광진구청,전체,,,,,https://blog.naver.com/sejonggallery/223146717636,https://culture.seoul.go.kr/cmmn/file/getImage.do?atchFileId=ddb37ca326bf4a99b1aceb58bb1ac845&thumb=Y,2023-07-31,기관,2023-07-05,2023-07-16,기타,37.55079808,127.0745756,무료,https://culture.seoul.go.kr/culture/culture/cultureEvent/view.do?cultcode=142587&menuNo=200009
전시/미술,구로구,[구로구립글마루한옥어린이도서관] 8월 문화가 있는 날 세시풍속도서 전시 ,2023-08-01~2023-08-31,구로구립 글마루한옥어린이도서관,구로문화원,누구나,,,,,https://lib.guro.go.kr/#/libprg/culture-lecture/detail/3160,https://culture.seoul.go.kr/cmmn/file/getImage.do?atchFileId=1582c6205bf3448995405bb7878b7a45&thumb=Y,2023-07-30,기관,2023-08-01,2023-08-31,문화가 있는 날,37.5069156,126.845637,무료,https://culture.seoul.go.kr/culture/culture/cultureEvent/view.do?cultcode=142586&menuNo=200009
